"stop_id","stop_code","stop_name","stop_lon","stop_lat"
9006500,"Emishalden (Emishalden)","Emishalden","9.985923","47.993252"
9004555,"Halbertshofen (Halbertshofen I (Kreis Neu-Ulm))","Halbertshofen","10.210926","48.226768"
9004616,"Weiher Straße (Biberach (Kreis Neu-Ulm))","Weiher Straße","10.213325","48.286063"
9004615,"Am Hoppenberg (Biberach (Kreis Neu-Ulm))","Am Hoppenberg","10.219918","48.286776"
9004614,"Weißenhorner Straße (Biberach (Kreis Neu-Ulm))","Weißenhorner Straße","10.212558","48.287816"
9004613,"Ascher Straße (Biberach (Kreis Neu-Ulm))","Ascher Straße","10.215417","48.288478"
9004612,"Rosenbergweg (Biberach (Kreis Neu-Ulm))","Rosenbergweg","10.220231","48.288032"
9004611,"Dorflinde (Biberach (Kreis Neu-Ulm))","Dorflinde","10.218204","48.287819"
9004924,"Unterführung (Thalfingen)","Unterführung","10.043284","48.430877"
9004927,"Bahnhof (Thalfingen)","Bahnhof","10.047985","48.433398"
9004921,"Ortsmitte (Thalfingen)","Ortsmitte","10.051922","48.437535"
9004923,"Evang. Kirche (Thalfingen)","Evang. Kirche","10.054142","48.434466"
9004922,"Sportheim (Thalfingen)","Sportheim","10.052920","48.433515"
9004929,"Junginger Straße (Thalfingen)","Junginger Straße","10.047916","48.443183"
9004928,"Weitfelderweg (Thalfingen)","Weitfelderweg","10.048921","48.444055"
9004103,"Post (Senden (Iller))","Post","10.050970","48.325848"
9004102,"Paul-Gerhardt-Haus (Senden (Iller))","Paul-Gerhardt-Haus","10.045665","48.324287"
9004101,"Bahnhof (Senden (Iller))","Bahnhof","10.050711","48.323755"
9004107,"Engelhartschule (Senden (Iller))","Engelhartschule","10.043751","48.320329"
9004106,"Hauptschule (Senden (Iller))","Hauptschule","10.063552","48.322585"
9004105,"Kirche St. Josef (Senden (Iller))","Kirche St. Josef","10.042199","48.326243"
9004104,"Höll (Senden (Iller))","Höll","10.055680","48.326641"
9004108,"Waldfriedhof (Senden (Iller))","Waldfriedhof","10.079333","48.324695"
9001552,"Firma Rheinzink (Donautal)","Firma Rheinzink","9.925563","48.356118"
9001551,"Haltepunkt (Donautal)","Haltepunkt","9.940214","48.366234"
9001550,"Firma Nanz (Donautal)","Firma Nanz","9.944066","48.367272"
9001555,"Firma Wieland (Donautal)","Firma Wieland","9.944756","48.356394"
9001554,"Firma UPS (Donautal)","Firma UPS","9.927431","48.353468"
9002601,"Oppingen (Oppingen)","Oppingen","9.827902","48.540959"
9002606,"Aichen (Nellingen) (Aichen (Nellingen))","Aichen","9.809343","48.529607"
9002971,"Ortsmitte (Gundershofen)","Ortsmitte","9.605426","48.377531"
9002972,"Wasserwerk (Gundershofen)","Wasserwerk","9.620061","48.374369"
9002973,"Kirche (Gundershofen)","Kirche","9.607086","48.376390"
9001395,"Barbaralinde (Ulm)","Barbaralinde","9.950560","48.378964"
9004728,"Holzheimer Str. (Remmeltshofen)","Holzheimer Str.","10.142617","48.382467"
9001391,"Oberer Kuhberg (Ulm)","Oberer Kuhberg","9.952113","48.381910"
9001390,"Kuhberg Schulzentrum (Ulm)","Kuhberg Schulzentrum","9.954541","48.383247"
9001393,"Grimmelfinger Weg (Ulm)","Grimmelfinger Weg","9.953001","48.381722"
9001392,"Am Hochsträß (Ulm)","Am Hochsträß","9.948766","48.380480"
9004722,"Neuheidlesweg (Kadeltshofen)","Neuheidlesweg","10.151786","48.376557"
9004721,"Franz-Fischer-Straße (Kadeltshofen)","Franz-Fischer-Straße","10.149195","48.380801"
9004727,"Dorfstraße (Remmeltshofen)","Dorfstraße","10.142892","48.382690"
9002777,"Neidegghalle (Markbronn)","Neidegghalle","9.859947","48.391593"
9002771,"Dorfplatz (Dietingen (Alb-Donau-Kr))","Dorfplatz","9.860522","48.396823"
9002778,"Rathaus (Markbronn)","Rathaus","9.860647","48.389070"
9004431,"Filzingen (Filzingen)","Filzingen","10.121740","48.142289"
9002552,"Dorf (Amstetten (Württ))","Dorf","9.856019","48.576401"
9002553,"Auf dem Aurain (Amstetten (Württ))","Auf dem Aurain","9.864012","48.575459"
9002806,"Rathaus (Sonderbuch (Blaubeuren))","Rathaus","9.811034","48.416697"
9002551,"Bahnhof (Amstetten (Württ))","Bahnhof","9.872734","48.578316"
9002556,"Panoramastraße (Amstetten (Württ))","Panoramastraße","9.875097","48.580142"
9002557,"Hauptschule (Amstetten (Württ))","Hauptschule","9.872098","48.578357"
9002554,"Heitmannsiedlung (Amstetten (Württ))","Heitmannsiedlung","9.865905","48.583116"
9002555,"Ortsmitte (Amstetten (Württ))","Ortsmitte","9.874062","48.579871"
9003821,"Wangen (Wangen (Alb-Donau-Kr))","Wangen","10.058052","48.257497"
9002558,"Hauptstraße (Amstetten (Württ))","Hauptstraße","9.877284","48.573354"
9002808,"Halde (Sonderbuch (Blaubeuren))","Halde","9.804174","48.415163"
9003551,"Rettighofen (Rettighofen)","Rettighofen","9.679222","48.189368"
9003556,"Hundersingen (Hundersingen (Bussen))","Hundersingen","9.664561","48.193456"
9001779,"Gurrenhof (Ludwigsfeld)","Gurrenhof","10.019212","48.354256"
9001772,"Danziger Straße (Ludwigsfeld)","Danziger Straße","10.011037","48.370723"
9001771,"Oberfeld (Ludwigsfeld)","Oberfeld","10.011047","48.363744"
9003737,"Harthausen (Harthausen (Staig))","Harthausen","9.993783","48.307408"
9003731,"Essendorf (Essendorf)","Essendorf","10.002802","48.313598"
9001605,"Kapelle (Wiblingen)","Kapelle","9.984128","48.360497"
9001602,"Alte Siedlung (Wiblingen)","Alte Siedlung","9.983163","48.353841"
9001601,"Oberer Wirt (Wiblingen)","Oberer Wirt","9.985962","48.356201"
9001600,"Pranger (Wiblingen)","Pranger","9.988323","48.360362"
9001608,"Ostermahdweg (Wiblingen)","Ostermahdweg","9.990695","48.365099"
9004208,"Beim Kreuz (Vöhringen (Kreis Neu-Ulm))","Beim Kreuz","10.082680","48.271279"
9004209,"Münchner Straße (Vöhringen (Kreis Neu-Ulm))","Münchner Straße","10.088596","48.282789"
9003601,"Bahnhof (Erbach (Donau))","Bahnhof","9.894261","48.325501"
9003603,"Jahnstraße (Erbach (Donau))","Jahnstraße","9.893221","48.330834"
9003602,"Aldi (Erbach (Donau))","Aldi","9.895031","48.327861"
9003607,"Wagnerstraße (Erbach (Donau))","Wagnerstraße","9.884523","48.327744"
9003606,"Käppelesberg (Erbach (Donau))","Käppelesberg","9.887019","48.329344"
9006079,"Bereitschaftspolizei (BePo) (Biberach (Riß))","Bereitschaftspolizei","9.779531","48.108788"
9004201,"Kirchplatz (Vöhringen (Kreis Neu-Ulm))","Kirchplatz","10.075285","48.275845"
9006071,"Bachlangen-Hagenbuch (Biberach (Riß))","Bachlangen-Hagenbuch","9.807267","48.090313"
9006070,"Bischmannshausen (Bischmannshausen)","Bischmannshausen","9.586419","48.126952"
9006072,"Bachlangen-Schlehenhang (Biberach (Riß))","Bachlangen-Schlehenhang","9.808229","48.093471"
9006075,"Jordanbad L307 (Biberach (Riß))","Jordanbad L307","9.824908","48.073657"
9006074,"Alleenstraße (Biberach (Riß))","Alleenstraße","9.798787","48.108728"
9006077,"Astiallee (Biberach (Riß))","Astiallee","9.784101","48.083467"
9006076,"An der Steige (Biberach (Riß))","An der Steige","9.802565","48.102109"
9006251,"Grundschule (Ertingen)","Grundschule","9.461332","48.100426"
9006250,"Donaubrücke (Binzwangen (Württ))","Donaubrücke","9.421329","48.107954"
9006253,"Kreissparkasse (Ertingen)","Kreissparkasse","9.463704","48.099931"
9006252,"Erisdorfer Weg (Ertingen)","Erisdorfer Weg","9.473785","48.102597"
9006255,"Kirche (Erisdorf)","Kirche","9.481971","48.119362"
9006254,"Marktplatz (Ertingen)","Marktplatz","9.461169","48.097225"
9006256,"Hauptschule (Ertingen)","Hauptschule","9.472034","48.099069"
9006258,"Dissenhausen Abzweig (Dissenhausen)","Dissenhausen Abzweig","9.980090","48.118017"
9006382,"Rathaus (Maselheim)","Rathaus","9.884685","48.134233"
9006381,"Hirsch (Maselheim)","Hirsch","9.884040","48.134247"
9006380,"Schule (Laupertshausen)","Schule","9.864798","48.120454"
9006384,"Luxenweiler (Maselheim)","Luxenweiler","9.884704","48.141572"
9003042,"Ortsstraße (Niederhofen (Ehingen))","Ortsstraße","9.786589","48.308608"
9006388,"Sulmingen (Sulmingen)","Sulmingen","9.868546","48.152325"
9006498,"Gammertinger Straße (Riedlingen (Württ))","Gammertinger Straße","9.467104","48.156450"
9006497,"Goethestraße (Riedlingen (Württ))","Goethestraße","9.463707","48.158361"
9006496,"Lessingstraße (Riedlingen (Württ))","Lessingstraße","9.462675","48.160146"
9006495,"Berliner-/Jerinstraße (Riedlingen (Württ))","Berliner-/Jerinstraße","9.463760","48.162713"
9006494,"Konrad-Manopp-Stift (Riedlingen (Württ))","Konrad-Manopp-Stift","9.467407","48.161691"
9006493,"Realschule (Riedlingen (Württ))","Realschule","9.468795","48.160625"
9006492,"Goldbronnenstr./Gymnasium (Riedlingen (Württ))","Goldbronnenstr./Gymnasium","9.471946","48.158264"
9006491,"Robert-Bosch-Str. (Riedlingen (Württ))","Robert-Bosch-Str.","9.503470","48.155945"
9006490,"Gartenstraße (Riedlingen (Württ))","Gartenstraße","9.496667","48.157135"
9004601,"Kloster (Roggenburg (Schwaben))","Kloster","10.230405","48.275701"
9004603,"Stiftweiher (Roggenburg (Schwaben))","Stiftweiher","10.223307","48.271271"
9004930,"Elchinger/UlmerStr. (Thalfingen)","Elchinger/UlmerStr.","10.049884","48.437032"
9004110,"Berliner Straße (Senden (Iller))","Berliner Straße","10.039689","48.332777"
9001944,"Seehalle (Pfuhl)","Seehalle","10.039201","48.414844"
9001945,"Lausitzer Straße (Pfuhl)","Lausitzer Straße","10.035228","48.412128"
9001946,"Saalbaustraße (Pfuhl)","Saalbaustraße","10.030692","48.410289"
9001940,"Winterstraße (Pfuhl)","Winterstraße","10.043733","48.411880"
9001941,"Falchenstraße (Pfuhl)","Falchenstraße","10.032620","48.404084"
9001942,"Schulzentrum (Pfuhl)","Schulzentrum","10.053561","48.414209"
9001943,"Steinhäule (Pfuhl)","Steinhäule","10.026427","48.420516"
9001540,"Hans-Lorenser-Straße (Donautal)","Hans-Lorenser-Straße","9.937815","48.348770"
9001544,"Firma Sanacorp (Donautal)","Firma Sanacorp","9.949367","48.359863"
9002941,"Haltepunkt (Schmiechen (Alb))","Haltepunkt","9.720607","48.362703"
9001549,"Firma Merckle/Ratiopharm (Donautal)","Firma Merckle/Ratiopharm","9.938948","48.359796"
9002942,"Kirche (Schmiechen (Alb))","Kirche","9.715506","48.363634"
9001382,"Egginger Weg (Ulm)","Egginger Weg","9.964412","48.385485"
9001383,"Königstraße/Gewerbeschulen (Ulm)","Königstraße/Gewerbeschulen","9.960982","48.384714"
9001380,"Saarlandstraße (Ulm)","Saarlandstraße","9.970441","48.387980"
9001381,"Robert-Dick-Weg (Ulm)","Robert-Dick-Weg","9.967248","48.386244"
9004731,"Brunnenweg (Beuren (bei Neu-Ulm))","Brunnenweg","10.187613","48.356848"
9004734,"Balmertshofen (Balmertshofen)","Balmertshofen","10.207441","48.359367"
9004737,"Biberberg (Biberberg)","Biberberg","10.212450","48.350384"
9002702,"Galgenbergstraße (Blaustein)","Galgenbergstraße","9.916025","48.414911"
9002701,"Bahnhof/Rathaus (Blaustein)","Bahnhof/Rathaus","9.918481","48.415503"
9002707,"Schillerstraße (Blaustein)","Schillerstraße","9.935836","48.409391"
9002706,"Schubartstraße (Blaustein)","Schubartstraße","9.937221","48.408310"
9002705,"Tagsteinfelsen (Blaustein)","Tagsteinfelsen","9.902686","48.417615"
9002704,"Kalte Herberge (Blaustein)","Kalte Herberge","9.908601","48.418261"
9002709,"Bad Blau/Sen.zentrum (Blaustein)","Bad Blau/Sen.zentrum","9.918897","48.416866"
9002708,"Am Blaugarten (Blaustein)","Am Blaugarten","9.929719","48.410934"
9004427,"Herrenstetten (Herrenstetten)","Herrenstetten","10.113780","48.186768"
9004421,"Aichheimstraße (Untereichen (Schwaben))","Aichheimstraße","10.107976","48.175789"
9001166,"Gehrnstraße (Jungingen (Ulm))","Gehrnstraße","9.992305","48.445771"
9001167,"Donau-Iller-Werkstätten (Jungingen (Ulm))","Donau-Iller-Werkstätten","9.984260","48.447747"
9001164,"Schwarzenbergstraße (Jungingen (Ulm))","Schwarzenbergstraße","9.986144","48.448747"
9001165,"Fichtenstraße (Jungingen (Ulm))","Fichtenstraße","9.990996","48.449389"
9001162,"Albstraße (Jungingen (Ulm))","Albstraße","9.985969","48.434827"
9001163,"Rathaus (Jungingen (Ulm))","Rathaus","9.986677","48.442753"
9001160,"Hörvelsinger Weg (Jungingen (Ulm))","Hörvelsinger Weg","9.986220","48.426156"
9001161,"Franzenhauserweg (Jungingen (Ulm))","Franzenhauserweg","9.985520","48.429076"
9002831,"Backhaus (Seissen)","Backhaus","9.743554","48.415805"
9002830,"Ort (Hessenhöfe)","Ort","9.773835","48.431370"
9002833,"Auf der Scherr (Seissen)","Auf der Scherr","9.740147","48.416546"
9002832,"Steigziegelhütte (Seissen)","Steigziegelhütte","9.753338","48.424221"
9003542,"Badwiesen (Moosbeuren)","Badwiesen","9.725584","48.175216"
9002834,"Gewerbegebiet (Seissen)","Gewerbegebiet","9.762916","48.427773"
9002837,"Wennenden (Wennenden)","Wennenden","9.743773","48.436388"
9003541,"Adler (Moosbeuren)","Adler","9.724687","48.179260"
9006170,"ZOB/Bahnhof (Biberach (Riß))","ZOB/Bahnhof","9.793043","48.101087"
9001768,"Hafnerweg (Ludwigsfeld)","Hafnerweg","10.018063","48.366335"
9001769,"Reichenberger Straße (Ludwigsfeld)","Reichenberger Straße","10.015240","48.368950"
9001761,"Breslauer Straße (Ludwigsfeld)","Breslauer Straße","10.008732","48.370878"
9001762,"Illerholzweg (Ludwigsfeld)","Illerholzweg","10.009439","48.367032"
9001763,"Ulmer Ried (Ludwigsfeld)","Ulmer Ried","10.007776","48.370293"
9001764,"Meisenweg (Ludwigsfeld)","Meisenweg","10.007093","48.367142"
9001765,"Hasenweg (Ludwigsfeld)","Hasenweg","10.010679","48.366949"
9001766,"Katholische Kirche (Ludwigsfeld)","Katholische Kirche","10.013520","48.367292"
9001767,"Allgäuer Straße (Ludwigsfeld)","Allgäuer Straße","10.013493","48.363893"
9006171,"Fesseler (Burgrieden)","Fesseler","9.935141","48.238013"
9002491,"Hinterdenkental (Hinterdenkental)","Hinterdenkental","9.924811","48.506686"
9003721,"Mussingen (Mussingen)","Mussingen","10.002466","48.325373"
9003727,"Buch (Buch (Illerkirchberg))","Buch","10.004515","48.319833"
9002123,"Hirsch (Göttingen (Württ))","Hirsch","10.079519","48.472523"
9002122,"Schammenhof (Göttingen (Württ))","Schammenhof","10.092014","48.481892"
9002121,"Hauptstraße (Göttingen (Württ))","Hauptstraße","10.082351","48.475338"
9004689,"Asch (Asch (Kreis Neu-Ulm))","Asch","10.212037","48.298848"
9003618,"Donaustraße (Erbach (Donau))","Donaustraße","9.888878","48.321478"
9003616,"Marktplatz (Erbach (Donau))","Marktplatz","9.888659","48.328297"
9003613,"Schloßberg (Erbach (Donau))","Schloßberg","9.883093","48.323061"
9003610,"Schulzentrum (Erbach (Donau))","Schulzentrum","9.894293","48.328892"
9003611,"Apotheke (Erbach (Donau))","Apotheke","9.891622","48.324964"
9006067,"Eichenberg (Eichenberg (Berkhm.))","Eichenberg","10.045341","48.047318"
9006064,"Waaghaus (Berkheim (Kr Bib.))","Waaghaus","10.082270","48.042353"
9006065,"Bonlanden (Bonlanden (Berkheim))","Bonlanden","10.073876","48.067596"
9006062,"Raiba (Bad Schussenried)","Raiba","9.657443","48.005002"
9006063,"Sportplatz (Berkheim (Kr Bib.))","Sportplatz","10.085065","48.038801"
9006060,"Linde (Steinhausen (Kr Bib))","Linde","9.695226","48.028199"
9006061,"Reichenbach (Bad Schussenried) (Reichenbach b Saulg.)","Reichenbach","9.613225","48.019187"
9006068,"L 260 (Illerbachen)","L 260","10.088105","48.029707"
9006069,"Rathaus (Betzenweiler)","Rathaus","9.574386","48.117579"
9006248,"Kreuztalerstraße (Binzwangen (Württ))","Kreuztalerstraße","9.415408","48.111286"
9006249,"Hauptstraße (Erisdorf)","Hauptstraße","9.479178","48.117926"
9006246,"Schloß (Erolzheim)","Schloß","10.070963","48.091430"
9006247,"Dorfplatz (Binzwangen (Württ))","Dorfplatz","9.419524","48.108914"
9006244,"Raiba (Erolzheim)","Raiba","10.070963","48.091430"
9006245,"Realschule (Erolzheim)","Realschule","10.068698","48.094203"
9006242,"Grundschule (Erlenmoos)","Grundschule","9.972162","48.062315"
9006243,"Langgasse (Erolzheim)","Langgasse","10.074721","48.089488"
9006241,"Hirsch (Edelbeuren)","Hirsch","10.020786","48.093595"
9006392,"Rose (Äpfingen)","Rose","9.854617","48.153653"
9006393,"Dürnachstraße (Baltringen)","Dürnachstraße","9.864967","48.172084"
9006394,"Schule (Baltringen)","Schule","9.866070","48.175322"
9006396,"Ochsenhauser Straße (Mietingen)","Ochsenhauser Straße","9.907440","48.181199"
9006397,"Abzweig Sägmühle (Mietingen)","Abzweig Sägmühle","9.924441","48.173914"
9006398,"Krautgartenweg (Mietingen)","Krautgartenweg","9.904212","48.183437"
9003051,"Pfraunstetten (Pfraunstetten)","Pfraunstetten","9.799042","48.317875"
9006488,"Neue Unlinger Straße (Riedlingen (Württ))","Neue Unlinger Straße","9.485636","48.149016"
9006489,"Marktplatz (Riedlingen (Württ))","Marktplatz","9.475777","48.153905"
9006485,"Linde (Neufra (b Riedling.))","Linde","9.475679","48.128850"
9006487,"Klinge/Kindergarten (Riedlingen (Württ))","Klinge/Kindergarten","9.475771","48.163501"
9006480,"Kirchstraße (Riedlingen (Württ))","Kirchstraße","9.475223","48.155040"
9006481,"Zwiefaltendorf (Zwiefaltendorf)","Zwiefaltendorf","9.517093","48.215465"
9006482,"Bundesstraße (Neufra (b Riedling.))","Bundesstraße","9.471260","48.128958"
9003741,"Steinberg (Steinberg (Alb-Donau-Kr))","Steinberg","10.002349","48.300130"
9003742,"Gassenäcker (Steinberg (Alb-Donau-Kr))","Gassenäcker","10.009165","48.298551"
9004638,"Nordholzer Straße (Meßhofen)","Nordholzer Straße","10.221027","48.264353"
9004631,"Wiesenbacher Straße (Ingstetten (Kreis Neu-Ulm))","Wiesenbacher Straße","10.248368","48.270327"
9004630,"Kirche (Ingstetten (Kreis Neu-Ulm))","Kirche","10.244810","48.270258"
9004632,"Süd (Ingstetten (Kreis Neu-Ulm))","Süd","10.252741","48.270667"
9004635,"Schulbushaltestelle (Ingstetten (Kreis Neu-Ulm))","Schulbushaltestelle","10.247809","48.271161"
9004637,"Illertisser Straße (Meßhofen)","Illertisser Straße","10.221392","48.265554"
9002221,"Nerenstetten (Nerenstetten)","Nerenstetten","10.098959","48.528437"
9004125,"Waldpark (Ay (an der Iller))","Waldpark","10.028803","48.330716"
9004124,"Herrenmühle (Ay (an der Iller))","Herrenmühle","10.032133","48.324616"
9004121,"Seniorentreff (Ay (an der Iller))","Seniorentreff","10.036444","48.323102"
9004123,"Germanenstraße (Ay (an der Iller))","Germanenstraße","10.036399","48.329506"
9004122,"Fuggerstraße (Ay (an der Iller))","Fuggerstraße","10.034291","48.326620"
9004705,"Rudolf-Diesel-Straße (Pfaffenhofen an der Roth)","Rudolf-Diesel-Straße","10.153486","48.357385"
9004704,"Espach (Pfaffenhofen an der Roth)","Espach","10.156451","48.354252"
9004707,"Schwesternweg (Pfaffenhofen an der Roth)","Schwesternweg","10.160157","48.355843"
9004706,"Marienfriedstraße (Pfaffenhofen an der Roth)","Marienfriedstraße","10.162531","48.354605"
9004701,"Sonnhalde (Pfaffenhofen an der Roth)","Sonnhalde","10.161912","48.349934"
9004703,"Kirche (Pfaffenhofen an der Roth)","Kirche","10.160428","48.354707"
9004702,"Rathaus (Pfaffenhofen an der Roth)","Rathaus","10.159400","48.354591"
9001574,"IVECO (Donautal)","IVECO","9.929503","48.359837"
9004708,"Schule (Pfaffenhofen an der Roth)","Schule","10.159358","48.347982"
9002675,"Ost (Westerheim (Württ))","Ost","9.633176","48.512987"
9002673,"Schule (Westerheim (Württ))","Schule","9.626307","48.513546"
9002672,"Rathaus (Westerheim (Württ))","Rathaus","9.624682","48.514598"
9002710,"Hofstraße (Blaustein)","Hofstraße","9.922946","48.415152"
9002711,"Sonnenfeld (Blaustein)","Sonnenfeld","9.936507","48.414269"
9002712,"Forsthaus (Blaustein)","Forsthaus","9.918074","48.422170"
9002714,"Gefäßklinik (Blaustein)","Gefäßklinik","9.941077","48.411579"
9002715,"Kindergarten Ost (Blaustein)","Kindergarten Ost","9.936996","48.410029"
9004411,"Illereichen Großtorstraße (Illereichen)","Illereichen Großtorstraße","10.124694","48.163701"
9004412,"Lindenfeldstraße (Illereichen)","Lindenfeldstraße","10.130216","48.166615"
9004414,"Dattenhausen (Dattenhausen (Kreis Neu-Ulm))","Dattenhausen","10.146989","48.173023"
9004417,"St.-Nikolaus-Straße (Bergenstetten)","St.-Nikolaus-Straße","10.142813","48.184756"
9004418,"Badhauser Weg (Bergenstetten)","Badhauser Weg","10.145845","48.182621"
9001281,"Stachelbeerweg (Ulm)","Stachelbeerweg","9.956022","48.407526"
9001280,"Beim Türmle (Ulm)","Beim Türmle","9.956814","48.405774"
9002956,"Bahnhof (Hütten (Alb-Donau-Kr))","Bahnhof","9.642453","48.370990"
9002957,"Hütten (Hütten (Alb-Donau-Kr))","Hütten","9.637881","48.373426"
9002954,"Talsteußlingen (Talsteußlingen)","Talsteußlingen","9.656866","48.367716"
9002951,"Teuringshofen (Teuringshofen)","Teuringshofen","9.674894","48.367459"
9002958,"Schule (Hütten (Alb-Donau-Kr))","Schule","9.637348","48.372925"
9002959,"Kindergarten (Hütten (Alb-Donau-Kr))","Kindergarten","9.631823","48.371499"
9003531,"Mundeldingen (Mundeldingen)","Mundeldingen","9.703391","48.189357"
9003530,"Am Stehenbach (Bettighofen)","Am Stehenbach","9.681543","48.206198"
9003536,"Mühlhausen (Mühlhausen (Oberstadion))","Mühlhausen","9.703194","48.181912"
9002829,"Landesstraße (Hessenhöfe)","Landesstraße","9.772057","48.429079"
9001025,"Frauenstraße/DRK (Ulm)","Frauenstraße/DRK","9.993108","48.406546"
9001020,"Karlstraße (Ulm)","Karlstraße","9.987458","48.404247"
9001029,"Friedhof (Ulm)","Friedhof","9.993034","48.411789"
9001594,"Firma Seeberger (Donautal)","Firma Seeberger","9.951307","48.358930"
9001591,"Am Sandhaken (Donautal)","Am Sandhaken","9.960921","48.365019"
9001590,"Kastbrücke (Donautal)","Kastbrücke","9.962873","48.361882"
9002481,"Vorderdenkental (Vorderdenkental)","Vorderdenkental","9.946600","48.503019"
9002486,"Neudenkental (Neudenkental)","Neudenkental","9.919668","48.502150"
9003289,"Kirche (Rißtissen)","Kirche","9.830692","48.266650"
9003285,"Bartleshalde (Dettingen a.d. Donau)","Bartleshalde","9.717923","48.262940"
9003284,"Feuerwehr (Dettingen a.d. Donau)","Feuerwehr","9.723898","48.263514"
9003287,"An der Laue (Gamerschwang)","An der Laue","9.784019","48.286026"
9003286,"Krone (Gamerschwang)","Krone","9.780418","48.286734"
9003280,"Deppenhausen (Deppenhausen)","Deppenhausen","9.661216","48.258541"
9003283,"Blienshofen (Blienshofen)","Blienshofen","9.761291","48.310766"
9003282,"Heufelden (Heufelden)","Heufelden","9.756389","48.295681"
9003447,"Luppenhofen (Obermarchtal)","Luppenhofen","9.615367","48.218902"
9003446,"Gütelhofen (Obermarchtal)","Gütelhofen","9.610422","48.225143"
9003445,"Kindergarten (Obermarchtal)","Kindergarten","9.571624","48.234039"
9003444,"Sebastian-Sailer-Straße (Obermarchtal)","Sebastian-Sailer-Straße","9.567318","48.231704"
9003443,"Schule (Obermarchtal)","Schule","9.566909","48.233738"
9003442,"Musikerheim (Obermarchtal)","Musikerheim","9.573765","48.232904"
9003441,"Schloßtor (Obermarchtal)","Schloßtor","9.570078","48.235404"
9001621,"Fischerhauser Weg (Wiblingen)","Fischerhauser Weg","9.976233","48.360475"
9001620,"Erenlauh (Wiblingen)","Erenlauh","9.971067","48.358459"
9003843,"Illertisser Straße (Dietenheim (ULLA))","Illertisser Straße","10.071642","48.211793"
9003842,"Königstraße (Dietenheim (ULLA))","Königstraße","10.069179","48.215665"
9003841,"Sailer (Dietenheim (ULLA))","Sailer","10.075253","48.210725"
9003847,"Promenadeweg (Dietenheim (ULLA))","Promenadeweg","10.066467","48.215933"
9003845,"Stifterstraße (Dietenheim (ULLA))","Stifterstraße","10.073960","48.215170"
9003849,"Zeughausweg (Dietenheim (ULLA))","Zeughausweg","10.076337","48.208538"
9003848,"Schule (Dietenheim (ULLA))","Schule","10.067075","48.212842"
9002804,"Bermaringer Weg (Asch (Württ))","Bermaringer Weg","9.818839","48.440851"
9002807,"Wippinger Straße (Sonderbuch (Blaubeuren))","Wippinger Straße","9.812550","48.416867"
9003190,"Abzw. Nasgenstadt (Nasgenstadt)","Abzw. Nasgenstadt","9.751389","48.282826"
9003661,"Waaghaus (Ersingen (Erbach))","Waaghaus","9.851272","48.290853"
9002801,"Lamm (Asch (Württ))","Lamm","9.817997","48.438933"
9006011,"Schule (Oberholzheim)","Schule","9.925467","48.258434"
9006010,"Hauptstraße (Oberholzheim)","Hauptstraße","9.923988","48.260821"
9006017,"Untere Gasse (Allmannsweiler)","Untere Gasse","9.592848","48.029555"
9006016,"Brasenberg/Minderreuti (Brasenberg)","Brasenberg/Minderreuti","9.626927","48.119723"
9002222,"Kindergarten (Nerenstetten)","Kindergarten","10.097510","48.529683"
9006019,"Kirche (Altheim (Kr Bib.))","Kirche","9.447506","48.145538"
9006018,"Goethestraße/Kiga (Altheim (Kr Bib.))","Goethestraße/Kiga","9.443701","48.140597"
9006239,"Post (Bechtenrot)","Post","10.047478","48.079244"
9006238,"Rotbrücke (Bechtenrot)","Rotbrücke","10.038491","48.074163"
9006233,"Erolzheimer Straße (Edenbachen)","Erolzheimer Straße","10.020169","48.065154"
9006232,"Zuben (Zuben)","Zuben","9.797511","47.990659"
9006231,"Rathaus (Oberessendorf)","Rathaus","9.775975","47.984916"
9006237,"Oberstetten (Oberstetten (Kr Bib))","Oberstetten","9.965622","48.044779"
9006236,"Post (Erlenmoos)","Post","9.973821","48.064225"
9006235,"Eichbühl (Eichbühl (Erlenmoos))","Eichbühl","9.977657","48.053535"
9006234,"Tankstelle (Edenbachen)","Tankstelle","10.020770","48.062325"
9006129,"Talfeldstraße (Biberach (Riß))","Talfeldstraße","9.804253","48.105335"
9006128,"Saulgauer Straße (Biberach (Riß))","Saulgauer Straße","9.782232","48.092105"
9006127,"Stadtfriedhof (Biberach (Riß))","Stadtfriedhof","9.782113","48.079865"
9006126,"St.-Josefs-Kirche (Biberach (Riß))","St.-Josefs-Kirche","9.798436","48.106868"
9006125,"Schlierenbachstraße (Biberach (Riß))","Schlierenbachstraße","9.791329","48.083921"
9006124,"Schießstand (Biberach (Riß))","Schießstand","9.795831","48.085149"
9006123,"Stadtteilhaus/Gaisental (Biberach (Riß))","Stadtteilhaus/Gaisental","9.771176","48.103259"
9006122,"Röhrenöschle (Biberach (Riß))","Röhrenöschle","9.802853","48.113745"
9006121,"Altes Krankenhaus (Biberach (Riß))","Altes Krankenhaus","9.776244","48.094717"
9006120,"Riedlinger Straße/Hirsch (Biberach (Riß))","Riedlinger Straße/Hirsch","9.779355","48.095371"
9006345,"Ringelhauser Allee (Laupheim)","Ringelhauser Allee","9.895134","48.235112"
9006343,"Kapellenstraße (Laupheim)","Kapellenstraße","9.882262","48.234223"
9006340,"Kapelle (Untersulmetingen)","Kapelle","9.828863","48.230195"
9006348,"Edith-Stein-Straße (Laupheim)","Edith-Stein-Straße","9.889084","48.241769"
9001349,"Jägerstraße (Ulm)","Jägerstraße","9.955505","48.400102"
9001966,"Iselhalle (Burlafingen)","Iselhalle","10.065700","48.418441"
9001967,"Adenauerstraße (Burlafingen)","Adenauerstraße","10.068638","48.410356"
9001964,"Glöcklerstraße (Burlafingen)","Glöcklerstraße","10.064980","48.416326"
9001965,"Dr.-Carl-Schwenk-Straße (Burlafingen)","Dr.-Carl-Schwenk-Straße","10.067416","48.422319"
9001962,"Dorfplatz (Burlafingen)","Dorfplatz","10.068399","48.415098"
9001961,"Bahnhof (Burlafingen)","Bahnhof","10.069336","48.410799"
9001968,"Schule (Burlafingen)","Schule","10.070131","48.412627"
9004131,"Freudenegg (Freudenegg (Schwaben))","Freudenegg","10.022898","48.334168"
9004244,"Ziegelei (Illerberg)","Ziegelei","10.117865","48.282328"
9004245,"Schule (Illerberg)","Schule","10.104557","48.288752"
9004711,"Roth (Roth (Pfaffenhofen))","Roth","10.149404","48.364314"
9004716,"Viktoriaweg (Berg (Kreis Neu-Ulm))","Viktoriaweg","10.155408","48.368418"
9004717,"An der Halde (Berg (Kreis Neu-Ulm))","An der Halde","10.154797","48.364647"
9004242,"Neue Welt (Illerberg)","Neue Welt","10.109473","48.290485"
9004243,"Witzighauser Straße (Illerberg)","Witzighauser Straße","10.104068","48.294836"
9001561,"Graf-Arco-Straße (Donautal)","Graf-Arco-Straße","9.942264","48.358105"
9001364,"Einstein-/Magirusstraße (Ulm)","Einstein-/Magirusstraße","9.964477","48.396034"
9001366,"Beim B'scheid (Ulm)","Beim B'scheid","9.974296","48.401778"
9001367,"Auf der Gölde (Ulm)","Auf der Gölde","9.967831","48.400583"
9001360,"Römerplatz (Ulm)","Römerplatz","9.974914","48.390334"
9001362,"Telefunken (Ulm)","Telefunken","9.971201","48.395312"
9001363,"Deutsche Aerospace (Ulm)","Deutsche Aerospace","9.970923","48.392760"
9004627,"Unteregg (Unteregg (Kreis Neu-Ulm))","Unteregg","10.244031","48.314730"
9004624,"Biberacher Straße (Schießen)","Biberacher Straße","10.241983","48.294778"
9004625,"Stoffenrieder Straße (Schießen)","Stoffenrieder Straße","10.242867","48.295694"
9004621,"Schleebuch (Schleebuch)","Schleebuch","10.236400","48.284630"
9004628,"Mühle (Unteregg (Kreis Neu-Ulm))","Mühle","10.239761","48.308202"
9002729,"Sportheim (Herrlingen)","Sportheim","9.895613","48.436448"
9002728,"Bahnhof (Herrlingen)","Bahnhof","9.897774","48.417950"
9002724,"Tagblatt (Herrlingen)","Tagblatt","9.897161","48.426867"
9002727,"Birkebene (Herrlingen)","Birkebene","9.884892","48.424543"
9002726,"Tannenweg (Herrlingen)","Tannenweg","9.888481","48.421926"
9002721,"Heinrich-Otto-Straße (Herrlingen)","Heinrich-Otto-Straße","9.907303","48.422741"
9002720,"Lindenstraße (Blaustein)","Lindenstraße","9.935130","48.408435"
9002723,"Post (Herrlingen)","Post","9.898349","48.419942"
9002722,"Weiherstraße (Herrlingen)","Weiherstraße","9.905969","48.422221"
9001101,"Mähringer Straße (Lehr)","Mähringer Straße","9.968244","48.432280"
9004404,"Kindergarten (Altenstadt (Iller))","Kindergarten","10.113552","48.163216"
9001103,"Junginger Straße (Lehr)","Junginger Straße","9.971616","48.436209"
9004402,"Untere Illereicher Straße (Altenstadt (Iller))","Untere Illereicher Straße","10.116421","48.158502"
9004403,"Schule (Altenstadt (Iller))","Schule","10.115168","48.162085"
9001106,"Firma Ott (Lehr)","Firma Ott","9.972437","48.436004"
9004401,"Bahnhof (Altenstadt (Iller))","Bahnhof","10.110107","48.161154"
9001299,"Sedanstraße (Ulm)","Sedanstraße","9.960368","48.392246"
9001296,"Neunkirchenweg (Ulm)","Neunkirchenweg","9.959892","48.386351"
9001297,"Sulzbachweg (Ulm)","Sulzbachweg","9.959671","48.388951"
9002923,"Schule (Justingen)","Schule","9.662428","48.387550"
9002922,"Weite Straße (Justingen)","Weite Straße","9.663862","48.387740"
9003520,"Heppenäcker (Rottenacker)","Heppenäcker","9.706733","48.227019"
9003521,"Krippenmuseum (Oberstadion)","Krippenmuseum","9.693706","48.186331"
9003523,"Schule (Oberstadion)","Schule","9.694227","48.184071"
9003524,"Munderkinger Straße (Oberstadion)","Munderkinger Straße","9.691221","48.187542"
9003526,"Neues Rathaus (Rottenacker)","Neues Rathaus","9.689520","48.235118"
9002853,"Realschule (Gerhausen)","Realschule","9.806403","48.398978"
9002852,"Grundschule (Gerhausen)","Grundschule","9.800074","48.399256"
9002851,"Hauptstraße (Gerhausen)","Hauptstraße","9.799551","48.398648"
9002582,"Ortsmitte (Reutti (Württ))","Ortsmitte","9.866544","48.556286"
9002854,"Steinbruch (Gerhausen)","Steinbruch","9.806183","48.390166"
9001742,"Dietrich-Kino (Neu-Ulm)","Dietrich-Kino","10.004936","48.383762"
9001743,"Neue Hochschule (Neu-Ulm)","Neue Hochschule","10.008836","48.379537"
9001741,"Fachoberschule (Neu-Ulm)","Fachoberschule","10.002673","48.388099"
9001030,"Kliniken Michelsberg (Ulm)","Kliniken Michelsberg","9.992483","48.411237"
9001031,"Frauensteige (Ulm)","Frauensteige","9.990412","48.409618"
9001032,"Schillerhöhe (Ulm)","Schillerhöhe","9.988471","48.407719"
9001039,"Kienlesberg (Ulm)","Kienlesberg","9.983152","48.405813"
9001586,"DEUTZ AG (Donautal)","DEUTZ AG","9.933071","48.361606"
9004904,"Alpenblick (Unterelchingen)","Alpenblick","10.094961","48.454804"
9003290,"Rißbrücke (Rißtissen)","Rißbrücke","9.827784","48.271725"
9003291,"Schule (Rißtissen)","Schule","9.833386","48.269158"
9002105,"Martinskirche (Langenau (Württ))","Martinskirche","10.119064","48.496480"
9002104,"Volksbank (Langenau (Württ))","Volksbank","10.121526","48.498902"
9002107,"Traube (Langenau (Württ))","Traube","10.133479","48.503974"
9002106,"Leonhardskirche (Langenau (Württ))","Leonhardskirche","10.127093","48.502787"
9002101,"Lindekreisel (Langenau (Württ))","Lindekreisel","10.118830","48.492597"
9002103,"Robert-Bosch-Gymnasium (Langenau (Württ))","Robert-Bosch-Gymnasium","10.121745","48.495941"
9002102,"Bahnhof (Langenau (Württ))","Bahnhof","10.125786","48.493285"
9003454,"Talheim (Talheim (Lauterach))","Talheim","9.573561","48.247141"
9002109,"Stadthalle (Langenau (Württ))","Stadthalle","10.121527","48.502023"
9002108,"Verbandsschule (Langenau (Württ))","Verbandsschule","10.125842","48.503770"
9001636,"Friedrichshafener Straße (Wiblingen)","Friedrichshafener Straße","9.977094","48.353992"
9001634,"Tannenplatz Zentrum (Wiblingen)","Tannenplatz Zentrum","9.972942","48.351347"
9001635,"Reutlinger Straße (Wiblingen)","Reutlinger Straße","9.969982","48.354619"
9001632,"Kemptener Straße (Wiblingen)","Kemptener Straße","9.973254","48.346470"
9001633,"Saulgauer Straße (Wiblingen)","Saulgauer Straße","9.968278","48.348005"
9001631,"St.-Gallener-Straße (Wiblingen)","St.-Gallener-Straße","9.978673","48.349752"
9003850,"Färberstraße (Dietenheim (ULLA))","Färberstraße","10.074658","48.211261"
9003851,"Landesstraße (Regglisweiler)","Landesstraße","10.059987","48.243593"
9003852,"Raiffeisenbank (Regglisweiler)","Raiffeisenbank","10.059393","48.242223"
9003853,"Schule (Regglisweiler)","Schule","10.055414","48.242547"
9003854,"Bad Brandenburg (Regglisweiler)","Bad Brandenburg","10.062716","48.238865"
9003303,"Raiffeisenstraße (Griesingen)","Raiffeisenstraße","9.780162","48.266366"
9004584,"Grenzweg (Obenhausen)","Grenzweg","10.175125","48.234505"
9003182,"Donaubrücke (Nasgenstadt)","Donaubrücke","9.762193","48.279023"
9003183,"Schule (Nasgenstadt)","Schule","9.761280","48.279236"
9004583,"Feuerwehrhaus (Obenhausen)","Feuerwehrhaus","10.176488","48.238143"
9001084,"Thomas-Dehler-Weg (Ulm)","Thomas-Dehler-Weg","10.002515","48.421995"
9003678,"Ulmer Straße 7 (Dellmensingen)","Ulmer Straße 7","9.900931","48.303767"
9003679,"Dietweg (Dellmensingen)","Dietweg","9.906322","48.303706"
9001087,"Egertweg (Ulm)","Egertweg","10.012139","48.425589"
9003672,"Kirche (Dellmensingen)","Kirche","9.900383","48.301757"
9003673,"Lange Straße (Dellmensingen)","Lange Straße","9.903238","48.300808"
9003674,"Straubstraße (Dellmensingen)","Straubstraße","9.898221","48.303752"
9003675,"Ulmer Straße (Dellmensingen)","Ulmer Straße","9.907089","48.305922"
9003676,"Hirsch (Dellmensingen)","Hirsch","9.906349","48.299938"
9003677,"Schule (Dellmensingen)","Schule","9.901831","48.302842"
9002211,"Börslingen (Börslingen)","Börslingen","10.062535","48.541261"
9001539,"Ernst-Abbe-Straße (Donautal)","Ernst-Abbe-Straße","9.932928","48.350105"
9006002,"Hauptstraße (Achstetten)","Hauptstraße","9.891955","48.265957"
9006003,"Schule (Achstetten)","Schule","9.896321","48.261417"
9006005,"Dorfplatz (Bronnen b Laupheim)","Dorfplatz","9.906207","48.246204"
9006007,"Adler (Stetten b Laupheim)","Adler","9.906332","48.279191"
9006008,"Schule (Stetten b Laupheim)","Schule","9.903422","48.279915"
9006009,"Rotbrücke (Unterholzheim)","Rotbrücke","9.903179","48.259295"
9006228,"Mühlhausen (Eberhardzell)","Mühlhausen","9.818651","47.967658"
9006220,"Mühlhauser Straße (Eberhardzell)","Mühlhauser Straße","9.821511","48.001058"
9006221,"Dietenwengen (Dietenwengen)","Dietenwengen","9.870088","48.019308"
9006222,"Umlachbrücke (Eberhardzell)","Umlachbrücke","9.821511","48.001058"
9006223,"Fischbacher Straße (Eberhardzell)","Fischbacher Straße","9.825067","48.003011"
9006224,"Füramoos (Füramoos)","Füramoos","9.892932","47.996927"
9006225,"Hedelberg (Hedelberg)","Hedelberg","9.858341","48.011032"
9006226,"Hetzisweiler (Hetzisweiler)","Hetzisweiler","9.796406","47.972878"
9006227,"Hummertsried (Hummertsried)","Hummertsried","9.846725","47.967139"
9003275,"Stetten (Stetten (Ehingen))","Stetten","9.680732","48.259677"
9003276,"Schule (Kirchen (Ehingen))","Schule","9.635985","48.272210"
9003277,"Ortsmitte (Kirchen (Ehingen))","Ortsmitte","9.631119","48.273037"
9003271,"Schlechtenfeld (Schlechtenfeld)","Schlechtenfeld","9.664351","48.274954"
9003272,"Mühlen (Mühlen (Ehingen))","Mühlen","9.647840","48.283924"
9003278,"Schloß Mochental (Kirchen (Ehingen))","Schloß Mochental","9.604162","48.261572"
9006138,"Wetterkreuzstraße (Biberach (Riß))","Wetterkreuzstraße","9.779560","48.084937"
9006139,"Fünf Linden (Biberach (Riß))","Fünf Linden","9.765803","48.098583"
9006134,"Waldseer Str./Mittelbergstraße (Biberach (Riß))","Waldseer Str./Mittelbergstraße","9.792197","48.090606"
9006136,"Weißes Bild Hochhaus (Biberach (Riß))","Weißes Bild Hochhaus","9.769092","48.103930"
9006137,"Weißhauptstraße (Biberach (Riß))","Weißhauptstraße","9.783803","48.086860"
9006130,"Landwirtschaftsschule (Biberach (Riß))","Landwirtschaftsschule","9.798975","48.100057"
9006131,"Viehmarkt (Biberach (Riß))","Viehmarkt","9.790508","48.096886"
9006132,"Viehmarkt/Zeppelinring (Biberach (Riß))","Viehmarkt/Zeppelinring","9.791112","48.096918"
9006133,"Jugendmusikschule (Biberach (Riß))","Jugendmusikschule","9.785622","48.100517"
9006354,"Danziger Straße (Laupheim)","Danziger Straße","9.870908","48.225136"
9006355,"Zeppelinstraße (Laupheim)","Zeppelinstraße","9.872649","48.221453"
9006356,"Straßäckerweg (Laupheim)","Straßäckerweg","9.877038","48.223102"
9006357,"Hafnergässle (Laupheim)","Hafnergässle","9.885895","48.226334"
9006350,"ZOB/Stadtbahnhof (Laupheim)","ZOB/Stadtbahnhof","9.878843","48.233403"
9006351,"Max-Eyth-Straße (Laupheim)","Max-Eyth-Straße","9.876293","48.237047"
9006352,"Simmisgasse (Laupheim)","Simmisgasse","9.876916","48.229353"
9006353,"Ulmer Straße/Einkaufszentrum (Laupheim)","Ulmer Straße/Einkaufszentrum","9.877536","48.228620"
9006358,"Freibad (Laupheim)","Freibad","9.885586","48.220896"
9006359,"Parkweg/Gymnasium (Laupheim)","Parkweg/Gymnasium","9.880747","48.224386"
9001910,"Schubert-Apotheke (Offenhausen (Neu-Ulm))","Schubert-Apotheke","10.016766","48.400853"
9001359,"Haßlerstraße (Ulm)","Haßlerstraße","9.978412","48.389648"
9001358,"Roncallihaus (Ulm)","Roncallihaus","9.974824","48.395488"
9001351,"Blücherstraße (Ulm)","Blücherstraße","9.973293","48.393828"
9001350,"Ehinger Tor (Ulm)","Ehinger Tor","9.981128","48.394661"
9001353,"Magirusstraße (Ulm)","Magirusstraße","9.964216","48.394399"
9001352,"Westplatz (Ulm)","Westplatz","9.968260","48.394725"
9001355,"Beyerstraße (Ulm)","Beyerstraße","9.978364","48.392769"
9001354,"Blautal-Center (Ulm)","Blautal-Center","9.961416","48.400574"
9001356,"Universum Center (Ulm)","Universum Center","9.980564","48.394827"
9004653,"Daimlerstraße (Weißenhorn)","Daimlerstraße","10.145162","48.308742"
9004652,"Richard-Wagner-Straße (Weißenhorn)","Richard-Wagner-Straße","10.156455","48.308530"
9004651,"St.-Johannis-Straße (Weißenhorn)","St.-Johannis-Straße","10.160014","48.307334"
9004650,"Engelkellerstraße (Weißenhorn)","Engelkellerstraße","10.166743","48.297985"
9004657,"Grundschule Nord (Weißenhorn)","Grundschule Nord","10.157347","48.312793"
9004656,"Einöde Amerika (Weißenhorn)","Einöde Amerika","10.195530","48.309965"
9004655,"Waldfriedhof (Weißenhorn)","Waldfriedhof","10.175130","48.304573"
9004654,"Kreismustergarten (Weißenhorn)","Kreismustergarten","10.135166","48.310865"
9004659,"Oster (Weißenhorn)","Oster","10.157755","48.307006"
9004658,"Krankenhaus (Weißenhorn)","Krankenhaus","10.157043","48.312500"
9001823,"Schule (Reutti (Neu-Ulm))","Schule","10.074301","48.361821"
9001822,"Denkmal (Reutti (Neu-Ulm))","Denkmal","10.070679","48.360911"
9001821,"Auweg/Marbacher Str. (Reutti (Neu-Ulm))","Auweg/Marbacher Str.","10.070040","48.363237"
9001135,"Grundschule (Mähringen (Ulm))","Grundschule","9.943802","48.437600"
9001134,"Wendeschleife (Mähringen (Ulm))","Wendeschleife","9.936229","48.437384"
9001133,"Rathaus (Mähringen (Ulm))","Rathaus","9.940397","48.436180"
9001132,"Alte Straße (Mähringen (Ulm))","Alte Straße","9.943062","48.435619"
9004471,"Feuerwehr (Osterberg (bei Illertissen))","Feuerwehr","10.169066","48.146395"
9002931,"Raiffeisenbank (Ingstetten (Württ))","Raiffeisenbank","9.644180","48.398715"
9002932,"Aussiedlerhof (Ingstetten (Württ))","Aussiedlerhof","9.650703","48.405091"
9002934,"Gymnastikhalle (Ingstetten (Württ))","Gymnastikhalle","9.645793","48.394938"
9003519,"Munderkinger Str. (Bettighofen)","Munderkinger Str.","9.680990","48.205096"
9003515,"Konrad-Sam-Straße (Rottenacker)","Konrad-Sam-Straße","9.687459","48.234007"
9002841,"Weilerhalde (Weiler b Blaubeuren)","Weilerhalde","9.776614","48.404453"
9002842,"Weiler (Weiler b Blaubeuren)","Weiler","9.766438","48.404053"
9002843,"Abzw. Weiler (Weiler b Blaubeuren)","Abzw. Weiler","9.767319","48.400675"
9003511,"Hauptstraße (Unterstadion)","Hauptstraße","9.689258","48.203589"
9003512,"Kreuzung (Unterstadion)","Kreuzung","9.684350","48.199770"
9001001,"Steinerne Brücke (Ulm)","Steinerne Brücke","9.987659","48.397186"
9001003,"Rosengasse (Ulm)","Rosengasse","9.996851","48.400416"
9001002,"Rathaus (Ulm)","Rathaus","9.994687","48.397494"
9001005,"Haus der Begegnung (Ulm)","Haus der Begegnung","9.997431","48.397641"
9001004,"Pauluskirche (Ulm)","Pauluskirche","9.995072","48.404784"
9001007,"C&amp;A (Ulm)","C&amp;A","9.984413","48.398329"
9001006,"Gänsturm (Ulm)","Gänsturm","10.001020","48.398824"
9001009,"Hafengasse (Ulm)","Hafengasse","9.995957","48.398193"
9001008,"Hauptbahnhof (Ulm)","Hauptbahnhof","9.984122","48.399375"
9001013,"Gewerbegebiet Ulm-Nord (Lehr)","Gewerbegebiet Ulm-Nord","9.969161","48.449935"
9001991,"Kirche (Steinheim (Neu-Ulm))","Kirche","10.106700","48.397783"
9002112,"Keplerstraße (Langenau (Württ))","Keplerstraße","10.127888","48.506322"
9002113,"Gewerbegebiet A7 (Langenau (Württ))","Gewerbegebiet A7","10.081047","48.492886"
9002110,"Albecker-Tor-Schule (Langenau (Württ))","Albecker-Tor-Schule","10.113510","48.491848"
9002111,"Lange Straße (Langenau (Württ))","Lange Straße","10.122200","48.500631"
9002116,"Elchinger Straße (Langenau (Württ))","Elchinger Straße","10.116773","48.488273"
9002117,"Gesundheitszentrum (Langenau (Württ))","Gesundheitszentrum","10.117011","48.500349"
9002114,"Bahnhofstraße (Langenau (Württ))","Bahnhofstraße","10.124553","48.495041"
9002115,"Friedhof (Langenau (Württ))","Friedhof","10.133682","48.505168"
9003461,"Krone (Lauterach (Württ))","Krone","9.580808","48.255666"
9003462,"Schule (Lauterach (Württ))","Schule","9.582275","48.254463"
9003641,"Mittelfeld (Ringingen (Kr UL))","Mittelfeld","9.816536","48.343554"
9003643,"Schule (Ringingen (Kr UL))","Schule","9.815916","48.345285"
9003642,"Oberdischinger Straße (Ringingen (Kr UL))","Oberdischinger Straße","9.813772","48.342800"
9003881,"Oberbalzheim (Oberbalzheim)","Oberbalzheim","10.077774","48.162901"
9006039,"Post (Bad Buchau)","Post","9.613319","48.060952"
9006038,"Kappel (Bad Buchau)","Kappel","9.603492","48.061508"
9006035,"Rathaus (Oggelsbeuren)","Rathaus","9.687714","48.168713"
9006034,"Rusenberg (Rusenberg)","Rusenberg","9.709864","48.155628"
9006037,"Hauptstraße (Bad Buchau)","Hauptstraße","9.609239","48.064212"
9006036,"Hauptschule (Bad Buchau)","Hauptschule","9.609208","48.061622"
9002202,"Grundschule (Ballendorf (Württ))","Grundschule","10.082167","48.553695"
9006030,"Schammach (Schammach (Württ))","Schammach","9.676850","48.123649"
9006033,"Aigendorf (Aigendorf (Württ))","Aigendorf","9.710809","48.164616"
9002201,"Brunnenplatz (Ballendorf (Württ))","Brunnenplatz","10.077399","48.554352"
9003240,"Dorfstraße (Altbierlingen)","Dorfstraße","9.751373","48.254192"
9003244,"Dintenhofen (Dintenhofen)","Dintenhofen","9.712504","48.250968"
9003246,"Herbertshofen (Herbertshofen (Donau))","Herbertshofen","9.708178","48.248774"
9003248,"Schaiblishausen (Schaiblishausen)","Schaiblishausen","9.767449","48.241387"
9006108,"Bürgerheim/Königsbergallee (Biberach (Riß))","Bürgerheim/Königsbergallee","9.790936","48.093331"
9006101,"Kolpingstr./Tiefgarage (Biberach (Riß))","Kolpingstr./Tiefgarage","9.785442","48.095716"
9006100,"Firma Kavo (Biberach (Riß))","Firma Kavo","9.788639","48.101144"
9006103,"Krummer Weg/Widdersteinstraße (Biberach (Riß))","Krummer Weg/Widdersteinstraße","9.774587","48.103254"
9006102,"Kreisklinik Haupteingang (Biberach (Riß))","Kreisklinik Haupteingang","9.774957","48.097532"
9006105,"Lupinstraße (Biberach (Riß))","Lupinstraße","9.785271","48.088055"
9006104,"Landratsamt (Biberach (Riß))","Landratsamt","9.792230","48.096263"
9006107,"Bürgerheim/Waldseer Straße (Biberach (Riß))","Bürgerheim/Waldseer Straße","9.790523","48.093505"
9006361,"Kurt-Georg-Kiesinger-Kaserne (Laupheim)","Kurt-Georg-Kiesinger-Kaserne","9.908896","48.214086"
9006360,"Am Mäuerle (Laupheim)","Am Mäuerle","9.886576","48.223658"
9006363,"Friedhof (Obersulmetingen)","Friedhof","9.827733","48.220257"
9006365,"Eichendorffweg (Obersulmetingen)","Eichendorffweg","9.827360","48.210439"
9006364,"Kindergarten (Obersulmetingen)","Kindergarten","9.827420","48.213361"
9006367,"Judenberg (Laupheim)","Judenberg","9.883625","48.231271"
9006366,"Wagnergasse (Untersulmetingen)","Wagnergasse","9.830572","48.231820"
9006369,"Walpertshofer Straße (Laupheim)","Walpertshofer Straße","9.900955","48.217044"
9006368,"Bronner Straße (Laupheim)","Bronner Straße","9.891883","48.238618"
9006215,"Rathaus (Heudorf am Bussen)","Rathaus","9.513135","48.130478"
9006214,"Wartehalle (Dürmentingen)","Wartehalle","9.533840","48.113926"
9006217,"Kreuz (Dürnau (Kr Biberach))","Kreuz","9.553728","48.061282"
9006216,"Hailtingen B312 (Hailtingen)","Hailtingen B312","9.535145","48.141223"
9006211,"Schule (Dürmentingen)","Schule","9.532037","48.114860"
9006210,"Mitte (Dettingen a.d. Iller)","Mitte","10.113054","48.106031"
9006213,"Krone (Dürmentingen)","Krone","9.535322","48.114305"
9006212,"Burgau (Burgau (Dürmenting.))","Burgau","9.536243","48.125417"
9006219,"Awengen (Awengen)","Awengen","9.839111","48.017029"
9006218,"Ampfelbronn (Ampfelbronn)","Ampfelbronn","9.834030","47.962178"
9004241,"Hauptstraße (Illerberg)","Hauptstraße","10.103828","48.291223"
9001901,"Schwabenstraße (Offenhausen (Neu-Ulm))","Schwabenstraße","10.017054","48.398998"
9001902,"Heinrich-Heine-Straße (Offenhausen (Neu-Ulm))","Heinrich-Heine-Straße","10.022337","48.399122"
9001903,"Ortsstraße (Offenhausen (Neu-Ulm))","Ortsstraße","10.022648","48.401871"
9001904,"Grundweg (Offenhausen (Neu-Ulm))","Grundweg","10.023087","48.403549"
9001906,"Roseggerstraße (Offenhausen (Neu-Ulm))","Roseggerstraße","10.024413","48.401667"
9001907,"Lisztstraße (Offenhausen (Neu-Ulm))","Lisztstraße","10.020437","48.406792"
9001908,"Milchweg (Offenhausen (Neu-Ulm))","Milchweg","10.017107","48.402370"
9001909,"Schlößle (Offenhausen (Neu-Ulm))","Schlößle","10.021049","48.403639"
9001346,"Franz-Wiedemeier-Straße (Ulm)","Franz-Wiedemeier-Straße","9.936914","48.398933"
9001347,"Einsteinstraße (Ulm)","Einsteinstraße","9.955419","48.399104"
9001344,"Abzw. Roter Berg (Ulm)","Abzw. Roter Berg","9.942401","48.404248"
9001345,"Fünf-Bäume-Weg (Ulm)","Fünf-Bäume-Weg","9.948645","48.396480"
9001342,"Clarissenstraße (Ulm)","Clarissenstraße","9.953202","48.398970"
9001343,"Sportzentrum TSG (Ulm)","Sportzentrum TSG","9.944876","48.397896"
9001340,"Riedwiesenweg (Ulm)","Riedwiesenweg","9.945152","48.401833"
9001341,"St.-Jakob-Straße (Ulm)","St.-Jakob-Straße","9.950097","48.400497"
9004264,"Troppauer Straße (Bellenberg (Schwaben))","Troppauer Straße","10.087044","48.255392"
9004265,"Leipziger Straße (Bellenberg (Schwaben))","Leipziger Straße","10.082896","48.259190"
9004262,"Bauerngasse (Bellenberg (Schwaben))","Bauerngasse","10.092753","48.257244"
9004263,"Rechbergstraße (Bellenberg (Schwaben))","Rechbergstraße","10.096611","48.251856"
9004261,"Bahnhof (Bellenberg (Schwaben))","Bahnhof","10.090243","48.254462"
9004640,"Röntgenstraße (Weißenhorn)","Röntgenstraße","10.138950","48.296142"
9004641,"Busbahnhof (Weißenhorn)","Busbahnhof","10.158457","48.303483"
9004642,"Bahnhof (Weißenhorn)","Bahnhof","10.153991","48.306864"
9004644,"Realschule (Weißenhorn)","Realschule","10.155907","48.303383"
9004645,"Grundschule Süd (Weißenhorn)","Grundschule Süd","10.165754","48.304273"
9004646,"Hauptschule (Weißenhorn)","Hauptschule","10.170046","48.304517"
9004647,"Buchenweg (Weißenhorn)","Buchenweg","10.173475","48.304149"
9004648,"Birkenweg (Weißenhorn)","Birkenweg","10.177148","48.303230"
9004649,"Schubertstraße (Weißenhorn)","Schubertstraße","10.167514","48.301629"
9001831,"Mühleweg (Jedelhausen)","Mühleweg","10.063847","48.352979"
9001832,"Erlenäckerstraße (Jedelhausen)","Erlenäckerstraße","10.063922","48.354597"
9002905,"Urspringschule (Schelklingen)","Urspringschule","9.719537","48.382530"
9002904,"Hammerstein (Schelklingen)","Hammerstein","9.729218","48.368440"
9002901,"Bahnhof (Schelklingen)","Bahnhof","9.734483","48.371338"
9002903,"Blaubeurer Straße (Schelklingen)","Blaubeurer Straße","9.741862","48.378432"
9002902,"Schule (Schelklingen)","Schule","9.734915","48.376911"
9003508,"Lindenstraße (Rottenacker)","Lindenstraße","9.683378","48.236855"
9003509,"Beethovenstraße (Rottenacker)","Beethovenstraße","9.692031","48.238638"
9003502,"Kirchbierlinger Straße (Rottenacker)","Kirchbierlinger Straße","9.691159","48.230855"
9003503,"Kirchstr./Rößle (Rottenacker)","Kirchstr./Rößle","9.684759","48.232431"
9003500,"Turnhalle (Rottenacker)","Turnhalle","9.683064","48.233520"
9003506,"Kirchstr./Kinderg. (Rottenacker)","Kirchstr./Kinderg.","9.685150","48.232518"
9003507,"Schule (Rottenacker)","Schule","9.683521","48.232501"
9003504,"Stettiner Straße (Rottenacker)","Stettiner Straße","9.696728","48.231594"
9003505,"Danziger Straße (Rottenacker)","Danziger Straße","9.694402","48.231842"
9002691,"Hülbenstraße (Heroldstatt)","Hülbenstraße","9.650969","48.441771"
9002692,"Schule (Heroldstatt)","Schule","9.646719","48.439196"
9001015,"Herdbruckerstraße (Ulm)","Herdbruckerstraße","9.995652","48.397117"
9002699,"Ziegelhütte (Heroldstatt)","Ziegelhütte","9.647450","48.424435"
9002698,"Albhof (Heroldstatt)","Albhof","9.676662","48.463044"
9001010,"Theater (Ulm)","Theater","9.987694","48.401080"
9001011,"Justizgebäude (Ulm)","Justizgebäude","9.993168","48.402004"
9003476,"Gewerbegebiet Nord (Munderkingen)","Gewerbegebiet Nord","9.637043","48.245719"
9003474,"Info-Zentrum (Untermarchtal)","Info-Zentrum","9.613223","48.239967"
9003473,"Schule (Untermarchtal)","Schule","9.613659","48.241529"
9003471,"Brücke (Untermarchtal)","Brücke","9.610079","48.239345"
9003478,"Dommühle (Munderkingen)","Dommühle","9.640654","48.231876"
9003479,"Algershofen (Munderkingen)","Algershofen","9.629226","48.229682"
9002470,"Bahnhof (Westerstetten)","Bahnhof","9.949267","48.520489"
9002473,"Kreuz (Westerstetten)","Kreuz","9.953170","48.519260"
9002472,"Birkhof (Westerstetten)","Birkhof","9.951677","48.506764"
9002475,"Sägewerk (Westerstetten)","Sägewerk","9.946112","48.520434"
9002474,"Abzw. Vorderdenkental (Westerstetten)","Abzw. Vorderdenkental","9.955565","48.517028"
9001651,"Zollbrücke (Gögglingen)","Zollbrücke","9.941461","48.343084"
9001652,"Hoher Berg (Gögglingen)","Hoher Berg","9.939152","48.338579"
9001653,"Riedlenstraße (Gögglingen)","Riedlenstraße","9.936402","48.335022"
9001654,"Wollgrasweg (Gögglingen)","Wollgrasweg","9.934245","48.331344"
9001655,"Am Hohen Rain (Gögglingen)","Am Hohen Rain","9.938591","48.330814"
9003872,"Reha-Park (Unterbalzheim)","Reha-Park","10.076133","48.176352"
9003871,"Am Dorfplatz (Unterbalzheim)","Am Dorfplatz","10.076054","48.180265"
9003652,"Kirchenberg (Donaurieden)","Kirchenberg","9.858843","48.313954"
9003651,"Adler (Donaurieden)","Adler","9.862065","48.313157"
9006028,"Rössle (Oggelsbeuren)","Rössle","9.685078","48.168639"
9006029,"Rathaus (Rupertshofen)","Rathaus","9.666864","48.149204"
9006022,"Rathaus (Waldhausen b Riedl.)","Rathaus","9.436574","48.125785"
9006023,"Schleifweg (Attenweiler)","Schleifweg","9.704162","48.131804"
9006020,"Rathaus (Heiligkreuztal)","Rathaus","9.401430","48.133999"
9006021,"Stefanus-Gemeinschaft (Heiligkreuztal)","Stefanus-Gemeinschaft","9.404926","48.135965"
9006026,"Weiher (Gutershofen)","Weiher","9.689894","48.124785"
9006024,"Schule (Attenweiler)","Schule","9.696770","48.135563"
9006025,"Ellighofen (Ellighofen (Württ))","Ellighofen","9.712396","48.170478"
9002642,"Schule (Machtolsheim)","Schule","9.742602","48.495956"
9006115,"Weißes Bild/Neue Heimat (Biberach (Riß))","Weißes Bild/Neue Heimat","9.768356","48.102316"
9006113,"Ehinger Straße (Biberach (Riß))","Ehinger Straße","9.787331","48.101603"
9006110,"Marktplatz (Biberach (Riß))","Marktplatz","9.787378","48.097672"
9003256,"Schule (Kirchbierlingen)","Schule","9.736805","48.231875"
9003257,"Kirche (Kirchbierlingen)","Kirche","9.733538","48.232175"
9003253,"Weisel (Weisel (Ehingen))","Weisel","9.751658","48.234117"
9003250,"Bockighofen (Bockighofen)","Bockighofen","9.765601","48.232118"
9006119,"Banatstraße (Biberach (Riß))","Banatstraße","9.770292","48.100711"
9006378,"Grüner Baum (Ellmannsweiler)","Grüner Baum","9.863709","48.110029"
9006379,"Torhaus (Heggbach)","Torhaus","9.897458","48.150961"
9006376,"Spielplatz (Ellmannsweiler)","Spielplatz","9.863579","48.115049"
9006377,"Freibad (Ellmannsweiler)","Freibad","9.859969","48.112818"
9006374,"Heggbach (Heggbach)","Heggbach","9.898561","48.148713"
9006375,"Nelkenweg (Ellmannsweiler)","Nelkenweg","9.863194","48.116140"
9006372,"Marktplatz (Laupheim)","Marktplatz","9.884422","48.229862"
9006373,"Ferdinand-Raff-Straße (Laupheim)","Ferdinand-Raff-Straße","9.882999","48.238687"
9006370,"Hasenstraße (Laupheim)","Hasenstraße","9.890924","48.225252"
9006202,"Hubertus Liebrecht-Straße (Biberach (Riß))","Hubertus Liebrecht-Straße","9.801752","48.124122"
9006203,"Rißegg Steige (Biberach (Riß))","Rißegg Steige","9.798322","48.082227"
9006204,"Erlenweg/BSZ (Biberach (Riß))","Erlenweg/BSZ","9.799531","48.087489"
9006205,"Fünf Linden/Kreisel (Biberach (Riß))","Fünf Linden/Kreisel","9.768598","48.099679"
9006209,"Oberdettingen (Dettingen a.d. Iller)","Oberdettingen","10.115333","48.102096"
9002271,"Asselfingen (Asselfingen)","Asselfingen","10.191646","48.530005"
9001102,"Loherstraße (Lehr)","Loherstraße","9.969364","48.432181"
9001104,"Ringstraße 143 (Lehr)","Ringstraße 143","9.972570","48.430238"
9001105,"Ringstraße 92 (Lehr)","Ringstraße 92","9.977290","48.433256"
9001939,"Trissinoplatz (Pfuhl)","Trissinoplatz","10.033081","48.406859"
9001938,"Stauffenbergstraße (Pfuhl)","Stauffenbergstraße","10.030639","48.405658"
9001935,"Parkplatz Schulzentrum (Pfuhl)","Parkplatz Schulzentrum","10.054632","48.413732"
9001934,"Kirchstraße (Pfuhl)","Kirchstraße","10.042286","48.407819"
9001937,"Platzgasse (Pfuhl)","Platzgasse","10.035506","48.408546"
9001936,"Altes Rathaus (Pfuhl)","Altes Rathaus","10.039904","48.410251"
9001931,"Adlerstraße (Pfuhl)","Adlerstraße","10.036167","48.405186"
9001933,"Leipheimer Straße (Pfuhl)","Leipheimer Straße","10.045781","48.407023"
9001932,"Sonnenstraße (Pfuhl)","Sonnenstraße","10.039719","48.405837"
9001333,"Torstraße (Ulm)","Torstraße","9.951955","48.395158"
9001332,"Maienweg (Ulm)","Maienweg","9.948654","48.389744"
9001331,"Auf der Laue (Ulm)","Auf der Laue","9.950000","48.391694"
9004212,"Ulmer Straße (Vöhringen (Kreis Neu-Ulm))","Ulmer Straße","10.078715","48.277486"
9004211,"Zum Klärwerk (Vöhringen (Kreis Neu-Ulm))","Zum Klärwerk","10.069219","48.286640"
9001338,"Firma Gläser (Ulm)","Firma Gläser","9.929080","48.407782"
9004215,"Haselnussweg (Vöhringen (Kreis Neu-Ulm))","Haselnussweg","10.086328","48.278781"
9004214,"Memminger Straße (Vöhringen (Kreis Neu-Ulm))","Memminger Straße","10.079007","48.276647"
9004851,"Flurweg (Unterfahlheim)","Flurweg","10.159467","48.428811"
9001808,"Teile-Center (Schwaighofen (Neu-Ulm))","Teile-Center","10.030628","48.379038"
9004852,"Siedlung (Unterfahlheim)","Siedlung","10.164318","48.428223"
9001801,"Eckenerstraße (Schwaighofen (Neu-Ulm))","Eckenerstraße","10.017000","48.387496"
9004677,"Lettenstraße (Attenhofen (Kreis Neu-Ulm))","Lettenstraße","10.158760","48.325208"
9004676,"Kellerstraße (Attenhofen (Kreis Neu-Ulm))","Kellerstraße","10.160597","48.327698"
9004671,"Hegelhofen (Hegelhofen)","Hegelhofen","10.155766","48.315040"
9001804,"Gasthof Post (Schwaighofen (Neu-Ulm))","Gasthof Post","10.028400","48.380362"
9001806,"Dornierstraße (Schwaighofen (Neu-Ulm))","Dornierstraße","10.026446","48.385245"
9004324,"Industriegebiet (Au (bei Illertissen))","Industriegebiet","10.085274","48.235380"
9004323,"Aumühle (Au (bei Illertissen))","Aumühle","10.090177","48.241216"
9004322,"Bürststraße (Au (bei Illertissen))","Bürststraße","10.078077","48.242058"
9004321,"Rathaus (Au (bei Illertissen))","Rathaus","10.080770","48.240135"
9004320,"Dornweiler (Illertissen)","Dornweiler","10.090754","48.213277"
9004696,"Am Himmelberg (Wallenhausen)","Am Himmelberg","10.214936","48.332353"
9004695,"Furchgasse (Wallenhausen)","Furchgasse","10.216815","48.336506"
9004692,"Bibergasse (Oberhausen (Biber))","Bibergasse","10.206944","48.330908"
9004691,"Oberhausen (Oberhausen (Biber))","Oberhausen","10.208965","48.330833"
9001248,"Hochschule Eselsberg (Ulm)","Hochschule Eselsberg","9.937913","48.418754"
9001247,"Wilhelm-Runge-Straße (Ulm)","Wilhelm-Runge-Straße","9.943041","48.419872"
9001246,"Uni West (Ulm)","Uni West","9.947013","48.421342"
9001245,"Kliniken Wissenschaftsstadt (Ulm)","Kliniken Wissenschaftsstadt","9.950338","48.423580"
9001244,"Staudingerstraße (Ulm)","Staudingerstraße","9.953331","48.424689"
9001241,"Botanischer Garten (Ulm)","Botanischer Garten","9.956739","48.424813"
9001240,"Universität Süd (Ulm)","Universität Süd","9.956195","48.421751"
9002912,"Steigstraße (Hausen ob Urspring)","Steigstraße","9.712484","48.386945"
9002911,"Schule (Hausen ob Urspring)","Schule","9.714190","48.389210"
9003621,"Bergstraße (Erbach (Donau))","Bergstraße","9.882424","48.325692"
9004521,"Oberrother Straße (Unterroth)","Oberrother Straße","10.175494","48.196540"
9002683,"Gewerbestraße (Heroldstatt)","Gewerbestraße","9.670542","48.451111"
9004522,"Lindenstraße (Unterroth)","Lindenstraße","10.171499","48.195952"
9001061,"Albecker Steige (Ulm)","Albecker Steige","10.004199","48.414201"
9001060,"Safranberg (Ulm)","Safranberg","10.001824","48.412954"
9001066,"EKZ Haslacher Weg (Ulm)","EKZ Haslacher Weg","10.016808","48.430026"
9003401,"Emeringen (Emeringen)","Emeringen","9.518015","48.234734"
9002464,"Seeweg (Beimerstetten)","Seeweg","9.982705","48.484155"
9002462,"Breitinger Straße (Beimerstetten)","Breitinger Straße","9.985838","48.482483"
9002463,"Schule (Beimerstetten)","Schule","9.980832","48.480304"
9002461,"Bahnhofstraße (Beimerstetten)","Bahnhofstraße","9.984203","48.481885"
9003259,"Kirche (Volkersheim (Württ))","Kirche","9.727603","48.220908"
9002861,"Ortsmitte (Beiningen)","Ortsmitte","9.806156","48.379923"
9002867,"Ortsmitte (Erstetten)","Ortsmitte","9.838002","48.370846"
9002864,"Auf der Lichs (Pappelau)","Auf der Lichs","9.805800","48.368468"
9001744,"Washingtonallee (Neu-Ulm)","Washingtonallee","10.011299","48.379839"
9002261,"Bahnhof (Rammingen (Württ))","Bahnhof","10.190326","48.512968"
9002262,"Neue Schule (Rammingen (Württ))","Neue Schule","10.174649","48.515800"
9002263,"Asselfinger Straße (Rammingen (Württ))","Asselfinger Straße","10.172074","48.520314"
9002264,"Hauptstraße (Rammingen (Württ))","Hauptstraße","10.171175","48.518929"
9002999,"Schwimmbadweg (Allmendingen)","Schwimmbadweg","9.717316","48.330141"
9003791,"Ammerstetten (Ammerstetten)","Ammerstetten","9.972143","48.280245"
9003797,"Beuren (Beuren (Alb-Donau-Kr))","Beuren","10.006299","48.265876"
9006163,"Schule (Stafflangen)","Schule","9.704045","48.091846"
9006162,"Rathaus (Stafflangen)","Rathaus","9.707359","48.090702"
9006161,"Hofen (Hofen (Biberach))","Hofen","9.688343","48.089135"
9006160,"Grüner Baum (Stafflangen)","Grüner Baum","9.706106","48.094289"
9006166,"Ziegelhausstraße (Biberach (Riß))","Ziegelhausstraße","9.770769","48.096670"
9006164,"Wieseler (Stafflangen)","Wieseler","9.712756","48.088843"
9003223,"Rathaus (Erbstetten (b Ehingen))","Rathaus","9.539888","48.279284"
9006169,"Freiburger Straße (Biberach (Riß))","Freiburger Straße","9.793821","48.106280"
9006168,"Riß-Center (Biberach (Riß))","Riß-Center","9.794102","48.102752"
9003227,"Unterwilzingen (Unterwilzingen)","Unterwilzingen","9.539935","48.265902"
9003225,"Unterwilzinger Straße (Erbstetten (b Ehingen))","Unterwilzinger Straße","9.542287","48.279318"
9003224,"Schule (Erbstetten (b Ehingen))","Schule","9.537792","48.277280"
9006309,"Kreuz (Langenenslingen)","Kreuz","9.387625","48.147302"
9006308,"Gasthaus Eck (Langenenslingen)","Gasthaus Eck","9.377610","48.148694"
9006303,"Fürstenbergstraße (Emerfeld)","Fürstenbergstraße","9.317372","48.167492"
9006302,"Fachwerkhaus (Egelfingen)","Fachwerkhaus","9.288674","48.154042"
9006301,"Rathaus (Dürrenwaldstetten)","Rathaus","9.353783","48.205302"
9006300,"Rathaus (Billafingen (Kr BC))","Rathaus","9.321504","48.157534"
9006307,"Inneringer Straße (Ittenhausen)","Inneringer Straße","9.333231","48.201892"
9006306,"Pistre (Pistre)","Pistre","9.311851","48.216800"
9006305,"Backhaus (Friedingen (L'ensl.))","Backhaus","9.372554","48.179683"
9003137,"Schlaufenbühl (Ehingen (Donau))","Schlaufenbühl","9.701836","48.289084"
9003136,"Spitalstr./Krankenhaus (Ehingen (Donau))","Spitalstr./Krankenhaus","9.720278","48.280966"
9003135,"Schafmarktstraße (Ehingen (Donau))","Schafmarktstraße","9.720935","48.279802"
9003133,"Amtsgericht (Ehingen (Donau))","Amtsgericht","9.726237","48.283114"
9003132,"Zanderstraße (Ehingen (Donau))","Zanderstraße","9.741289","48.280446"
9003131,"Am Stadion (Ehingen (Donau))","Am Stadion","9.737336","48.280984"
9003130,"Finanzamt (Ehingen (Donau))","Finanzamt","9.731537","48.283440"
9003139,"Stoffelbergstraße (Ehingen (Donau))","Stoffelbergstraße","9.699911","48.292217"
9002272,"Aussiedlerhöfe (Asselfingen)","Aussiedlerhöfe","10.199263","48.521176"
9006417,"Klocker (Moosburg b Bad Bucha)","Klocker","9.596704","48.092904"
9006414,"Blumenstraße (Reute (b Biberach))","Blumenstraße","9.759528","48.066365"
9006413,"Zweifelsberg (Mittelbiberach)","Zweifelsberg","9.728110","48.080086"
9006412,"Schügele (Mittelbiberach)","Schügele","9.757801","48.090389"
9006411,"Schulstraße (Mittelbiberach)","Schulstraße","9.740235","48.086088"
9006410,"Rössle (Mittelbiberach)","Rössle","9.746921","48.087106"
9006419,"Eichen (Eichen (Ochsenhaus.))","Eichen","9.967690","48.093587"
9006418,"Rathaus (Moosburg b Bad Bucha)","Rathaus","9.597105","48.086984"
9001320,"Krankenhaus Söflingen (Ulm)","Krankenhaus Söflingen","9.948089","48.394947"
9001321,"Schongauer Weg (Ulm)","Schongauer Weg","9.948327","48.393902"
9001322,"Leonberger Weg (Ulm)","Leonberger Weg","9.949476","48.391833"
9001323,"Gleißelstetten (Ulm)","Gleißelstetten","9.947919","48.387970"
9001324,"Fünf-Bäume-Weg Mitte (Ulm)","Fünf-Bäume-Weg Mitte","9.945038","48.396429"
9001325,"Maienweg Nord (Ulm)","Maienweg Nord","9.945188","48.395061"
9001326,"Waidstraße (Ulm)","Waidstraße","9.951601","48.392796"
9001329,"Oberer Roter Berg (Ulm)","Oberer Roter Berg","9.936555","48.401445"
9004202,"Bahnhof (Vöhringen (Kreis Neu-Ulm))","Bahnhof","10.083447","48.278916"
9004203,"Grundschule Nord (Vöhringen (Kreis Neu-Ulm))","Grundschule Nord","10.075446","48.284154"
9004204,"Realschule (Vöhringen (Kreis Neu-Ulm))","Realschule","10.075885","48.274257"
9004205,"Nibelungenstraße (Vöhringen (Kreis Neu-Ulm))","Nibelungenstraße","10.078194","48.270026"
9004206,"Wieland-Werke (Vöhringen (Kreis Neu-Ulm))","Wieland-Werke","10.073828","48.277676"
9004669,"Emershofen (Emershofen)","Emershofen","10.124706","48.272306"
9004662,"Fa. PERI (Weißenhorn)","Fa. PERI","10.147249","48.305007"
9004663,"Rosenwirtstraße (Grafertshofen)","Rosenwirtstraße","10.160613","48.296896"
9004660,"Förderschule (Weißenhorn)","Förderschule","10.145508","48.300078"
9004661,"Robert-Bosch-Straße (Weißenhorn)","Robert-Bosch-Straße","10.139105","48.305520"
9004666,"St.-Michael-Straße (Bubenhausen (Weißenhorn))","St.-Michael-Straße","10.164797","48.277050"
9004667,"Kindergarten (Bubenhausen (Weißenhorn))","Kindergarten","10.165259","48.277801"
9004841,"Brücke (Oberfahlheim)","Brücke","10.143258","48.429693"
9004442,"Rathaus (Kellmünz (an der Iller))","Rathaus","10.129760","48.122002"
9004443,"Illertalstraße (Kellmünz (an der Iller))","Illertalstraße","10.124320","48.124475"
9004441,"Bahnhof (Kellmünz (an der Iller))","Bahnhof","10.123928","48.120638"
9004331,"Tiefenbacher Weg (Betlinshausen)","Tiefenbacher Weg","10.113896","48.240466"
9004332,"Kirche (Betlinshausen)","Kirche","10.109740","48.241892"
9004333,"Friedrich-List-Straße (Betlinshausen)","Friedrich-List-Straße","10.104510","48.242877"
9004686,"Biberachzell (Biberachzell)","Biberachzell","10.213939","48.313091"
9001258,"Sonnenfeld (Ulm)","Sonnenfeld","9.937464","48.414180"
9004681,"Oberreichenbach (Oberreichenbach (Kreis Neu-Ulm))","Oberreichenbach","10.202325","48.308833"
9004683,"Unterreichenbach (Unterreichenbach (Kreis Neu-Ulm))","Unterreichenbach","10.205752","48.312404"
9001254,"Lise-Meitner-Straße (Ulm)","Lise-Meitner-Straße","9.935725","48.418763"
9001255,"Heilmeyersteige (Ulm)","Heilmeyersteige","9.950249","48.413725"
9001256,"Virchowstraße (Ulm)","Virchowstraße","9.945986","48.414030"
9001257,"Söflinger Weinberge (Ulm)","Söflinger Weinberge","9.941928","48.412291"
9001251,"Kelternweg (Ulm)","Kelternweg","9.960065","48.413445"
9001548,"Firma Meiller (Donautal)","Firma Meiller","9.936185","48.361446"
9001784,"Freudenegger Straße (Gerlenhofen)","Freudenegger Straße","10.032186","48.339931"
9001782,"Frankenstraße (Gerlenhofen)","Frankenstraße","10.036396","48.347294"
9001783,"Kapelle (Gerlenhofen)","Kapelle","10.035534","48.342743"
9001781,"Bahnhof (Gerlenhofen)","Bahnhof","10.036540","48.351106"
9001078,"Ludwig-Beck-Straße (Ulm)","Ludwig-Beck-Straße","10.007185","48.422395"
9001079,"Eichenplatz (Ulm)","Eichenplatz","10.004075","48.420228"
9001070,"Ostpreußenweg (Ulm)","Ostpreußenweg","10.031670","48.433914"
9002676,"Donnstetter Straße (Westerheim (Württ))","Donnstetter Straße","9.618758","48.514936"
9001072,"Mecklenburgweg (Ulm)","Mecklenburgweg","10.022893","48.434271"
9001073,"Thüringenweg (Ulm)","Thüringenweg","10.019616","48.433275"
9001074,"Haslacher Weg (Ulm)","Haslacher Weg","10.013839","48.430206"
9002671,"Feldstetter Straße (Westerheim (Württ))","Feldstetter Straße","9.620648","48.510141"
9003411,"Rechtenstein (Rechtenstein)","Rechtenstein","9.549732","48.239937"
9001672,"Illerkirchberger Straße (Donaustetten)","Illerkirchberger Straße","9.932397","48.328400"
9001673,"Am Kraftwerk (Donaustetten)","Am Kraftwerk","9.925945","48.324342"
9001671,"Wasserturm (Donaustetten)","Wasserturm","9.932965","48.331444"
9002412,"Schule (Bollingen (Württ))","Schule","9.909239","48.455532"
9002411,"Schlößlesstraße (Bollingen (Württ))","Schlößlesstraße","9.913423","48.455112"
9002417,"Böttingen (Böttingen (Dornstadt))","Böttingen","9.906463","48.462101"
9002781,"Wippingen (Wippingen)","Wippingen","9.863702","48.427501"
9002898,"Treffensbuch (Treffensbuch)","Treffensbuch","9.792213","48.479078"
9002892,"Plätzle (Bühlenhausen)","Plätzle","9.780101","48.459331"
9002891,"Ulmer Straße (Bühlenhausen)","Ulmer Straße","9.780007","48.457605"
9002527,"Dorfstraße (Ettlenschieß)","Dorfstraße","9.924919","48.561614"
9002251,"Hirsch (Öllingen)","Hirsch","10.145637","48.529411"
9002521,"Sinabronn (Sinabronn)","Sinabronn","9.951707","48.540118"
9002252,"Tulpenweg (Öllingen)","Tulpenweg","10.147776","48.526989"
9003304,"Höhenstraße (Griesingen)","Höhenstraße","9.779711","48.265101"
9003302,"Adler (Griesingen)","Adler","9.783794","48.266935"
9002528,"Hirsch (Ettlenschieß)","Hirsch","9.925023","48.565821"
9003781,"Ammerstettener Straße (Schnürpflingen)","Ammerstettener Straße","9.987557","48.272595"
9003782,"Hauptstraße (Schnürpflingen)","Hauptstraße","9.993746","48.272856"
9003783,"Lindenstraße (Schnürpflingen)","Lindenstraße","9.993454","48.274477"
9003784,"Rathaus (Schnürpflingen)","Rathaus","9.988575","48.272289"
9003785,"Weihungsstraße (Schnürpflingen)","Weihungsstraße","9.995695","48.271967"
9002321,"Dorfplatz (Weidenstetten)","Dorfplatz","9.996623","48.552301"
9003239,"Industriegebiet Berg (Altbierlingen)","Industriegebiet Berg","9.743777","48.254151"
9006172,"Burghöfe (Burgrieden)","Burghöfe","9.929243","48.234976"
9002322,"Schule (Weidenstetten)","Schule","9.998210","48.550372"
9006174,"Hochstetten (Burgrieden)","Hochstetten","9.927129","48.231936"
9006175,"Dorfstraße (Bühl b Laupheim)","Dorfstraße","9.935498","48.220698"
9006176,"Bepo/L 273 (Biberach (Riß))","Bepo/L 273","9.779531","48.108788"
9006177,"Bhf./Freiburger Str. (Biberach (Riß))","Bhf./Freiburger Str.","9.794128","48.101817"
9006178,"Polizei/BSZ (Biberach (Riß))","Polizei/BSZ","9.799531","48.087489"
9003235,"Grüner Baum (Berg (Donau))","Grüner Baum","9.736433","48.261294"
9003236,"Schule (Berg (Donau))","Schule","9.737541","48.261584"
9006318,"Malzstraße (Baustetten)","Malzstraße","9.889673","48.202797"
9006319,"Oberholzheimer Straße (Bihlafingen)","Oberholzheimer Straße","9.956984","48.260020"
9006310,"Schule (Langenenslingen)","Schule","9.380351","48.144926"
9006311,"Warmtal (Langenenslingen)","Warmtal","9.335128","48.160796"
9006312,"Löwen (Wilflingen (b Riedl))","Löwen","9.354702","48.137678"
9006313,"Hauptstraße (Baustetten)","Hauptstraße","9.885916","48.202583"
9006314,"Hungerberg (Baustetten)","Hungerberg","9.884996","48.212447"
9006315,"Ritter-Heinrich-Straße (Baustetten)","Ritter-Heinrich-Straße","9.882202","48.209572"
9006316,"Schule (Baustetten)","Schule","9.887199","48.206746"
9003125,"Landgarbweg (Längenfeld) (Ehingen (Donau))","Landgarbweg","9.696141","48.290495"
9003127,"Lindenplatz (Ehingen (Donau))","Lindenplatz","9.727869","48.281350"
9003121,"Franz.kloster/Gesundh.zentrum (Ehingen (Donau))","Franz.kloster/Gesundh.zentrum","9.719524","48.281016"
9003123,"Längenfeldschule (Ehingen (Donau))","Längenfeldschule","9.697577","48.290000"
9003129,"Marktplatz (Ehingen (Donau))","Marktplatz","9.725442","48.283110"
9006404,"Alpenweg (Walpertshofen (BC))","Alpenweg","9.917258","48.188055"
9006405,"Rotbachbrücke (Mittelbiberach)","Rotbachbrücke","9.750583","48.087891"
9006406,"Adler (Mittelbiberach)","Adler","9.751258","48.088165"
9006400,"Neue Schule (Mietingen)","Neue Schule","9.905672","48.183875"
9006401,"Rathaus (Mietingen)","Rathaus","9.897974","48.182812"
9006402,"Rathaus (Walpertshofen (BC))","Rathaus","9.923622","48.187420"
9006403,"Lange Grube (Mietingen)","Lange Grube","9.913091","48.185903"
9006408,"Neue Schule (Mittelbiberach)","Neue Schule","9.741845","48.086995"
9006409,"Oberdorf (Mittelbiberach)","Oberdorf","9.734348","48.084614"
9006000,"Laupheimer Straße (Achstetten)","Laupheimer Straße","9.897680","48.255219"
9006001,"Moser (Achstetten)","Moser","9.898118","48.258714"
9001311,"Königstraße (Ulm)","Königstraße","9.961139","48.394470"
9001310,"Sonnenstraße (Ulm)","Sonnenstraße","9.957697","48.394580"
9004541,"Bräuhaus (Buch (bei Illertissen))","Bräuhaus","10.178603","48.222401"
9001863,"Bahnhalt Finninger Str. Süd (Neu-Ulm)","Bahnhalt Finninger Str. Süd","10.025495","48.390299"
9001861,"Vorwerkstraße (Neu-Ulm)","Vorwerkstraße","10.016893","48.392309"
9001866,"Pfaffenweg (Neu-Ulm)","Pfaffenweg","10.020451","48.389930"
9001865,"Süd-West-Chemie (Neu-Ulm)","Süd-West-Chemie","10.021699","48.394280"
9001864,"Mutschler (Neu-Ulm)","Mutschler","10.016584","48.395774"
9004301,"Bahnhof (Illertissen)","Bahnhof","10.099818","48.222453"
9004303,"Stauffenbergstraße (Illertissen)","Stauffenbergstraße","10.102323","48.216907"
9004302,"Schulzentrum/Nautilla (Illertissen)","Schulzentrum/Nautilla","10.093881","48.216700"
9004305,"Saumweg (Illertissen)","Saumweg","10.102651","48.227804"
9004304,"Martinsplatz (Illertissen)","Martinsplatz","10.105213","48.223013"
9004306,"Auer Straße (Illertissen)","Auer Straße","10.094699","48.226001"
9004309,"Krankenhaus (Illertissen)","Krankenhaus","10.102666","48.225349"
9004308,"Rathaus (Illertissen)","Rathaus","10.107826","48.223078"
9001261,"Traminerweg (Ulm)","Traminerweg","9.957002","48.411483"
9001260,"Ruländerweg (Ulm)","Ruländerweg","9.955405","48.409167"
9001265,"Veltlinerweg (Ulm)","Veltlinerweg","9.950257","48.409831"
9001266,"Ehrensteiner Feld (Ulm)","Ehrensteiner Feld","9.948108","48.411188"
9004231,"Burgthalschenke (Thal (Vöhringen))","Burgthalschenke","10.099423","48.288145"
9001044,"Neuer Friedhof (Ulm)","Neuer Friedhof","9.986575","48.415883"
9001046,"Wilhelmsburgkaserne (Ulm)","Wilhelmsburgkaserne","9.984396","48.417727"
9001049,"Congress Centrum (Ulm)","Congress Centrum","10.003823","48.401273"
9001048,"Örlinger Straße (Ulm)","Örlinger Straße","10.001717","48.408863"
9004542,"Rothtalhalle (Buch (bei Illertissen))","Rothtalhalle","10.178463","48.228608"
9002666,"Feldstetten (Feldstetten)","Feldstetten","9.626876","48.476330"
9002667,"Tannhof (Feldstetten)","Tannhof","9.652485","48.481988"
9002660,"Geislinger Straße (Laichingen)","Geislinger Straße","9.698029","48.491748"
9003421,"Datthausen (Datthausen)","Datthausen","9.535453","48.215948"
9002401,"Rommelkaserne (Dornstadt (Württ))","Rommelkaserne","9.964116","48.454069"
9002402,"Altenzentrum (Dornstadt (Württ))","Altenzentrum","9.956073","48.466376"
9002403,"Gartenstraße (Dornstadt (Württ))","Gartenstraße","9.948495","48.459532"
9002404,"Griesweg (Dornstadt (Württ))","Griesweg","9.945043","48.462267"
9002405,"Mittelbühl (Dornstadt (Württ))","Mittelbühl","9.936809","48.466705"
9002406,"Schule (Dornstadt (Württ))","Schule","9.941719","48.467492"
9002407,"Firma Rentex (Dornstadt (Württ))","Firma Rentex","9.958759","48.466110"
9001441,"Schaffelkingen (Schaffelkingen)","Schaffelkingen","9.911441","48.373075"
9002884,"Säge (Berghülen)","Säge","9.768234","48.463152"
9002885,"Schule (Berghülen)","Schule","9.769596","48.462919"
9002881,"Wochenendhausgebiet (Berghülen)","Wochenendhausgebiet","9.740106","48.460243"
9002883,"Rathaus (Berghülen)","Rathaus","9.760174","48.464042"
9002243,"Schule (Setzingen)","Schule","10.129206","48.536984"
9002241,"Ortsmitte (Setzingen)","Ortsmitte","10.130734","48.538093"
9002531,"Brunnenplatz (Luizhausen)","Brunnenplatz","9.902150","48.520814"
9002532,"Buchenäcker (Luizhausen)","Buchenäcker","9.892415","48.517616"
9003331,"Trafostation (Öpfingen)","Trafostation","9.803834","48.289054"
9003333,"Schule (Öpfingen)","Schule","9.795545","48.287188"
9003332,"Hirsch (Öpfingen)","Hirsch","9.804023","48.286481"
9002538,"Ulmer Straße (Radelstetten)","Ulmer Straße","9.854433","48.525756"
9003334,"Von-Freyberg-Str. (Öpfingen)","Von-Freyberg-Str.","9.803011","48.290715"
9006098,"Hühnerfeld (Biberach (Riß))","Hühnerfeld","9.778745","48.081633"
9006093,"Felsengartenstraße (Biberach (Riß))","Felsengartenstraße","9.784333","48.095175"
9006092,"Frei- und Hallensportbad (Biberach (Riß))","Frei- und Hallensportbad","9.802592","48.093556"
9006091,"Arthur-Handtmann-Straße (Biberach (Riß))","Arthur-Handtmann-Straße","9.804836","48.085095"
9006090,"Guttenbrunnweg (Biberach (Riß))","Guttenbrunnweg","9.770517","48.105890"
9006097,"Bürgerheim/Kolpingstraße (Biberach (Riß))","Bürgerheim/Kolpingstraße","9.790252","48.093354"
9006096,"Gerster/Freibad (Biberach (Riß))","Gerster/Freibad","9.799090","48.097142"
9006095,"Gaisental/Kreiskrankenhaus (Biberach (Riß))","Gaisental/Kreiskrankenhaus","9.774632","48.100034"
9006094,"Friedenskirche (Biberach (Riß))","Friedenskirche","9.776059","48.100259"
9003205,"Altsteußlingen (Altsteußlingen)","Altsteußlingen","9.649235","48.305734"
9003207,"Briel (Briel (Württ))","Briel","9.649685","48.319869"
9003752,"Harthauser Straße (Staig (Alb-Donau-Kr))","Harthauser Straße","9.990658","48.301239"
9003751,"Rathaus (Staig (Alb-Donau-Kr))","Rathaus","9.988501","48.299126"
9003209,"Ort (Dächingen)","Ort","9.614267","48.310153"
9006149,"Mittelbucher Straße (Ringschnait)","Mittelbucher Straße","9.880587","48.074503"
9006148,"Rindenmoos (Rindenmoos)","Rindenmoos","9.784195","48.065812"
9006145,"Jordanbad B312 (Biberach (Riß))","Jordanbad B312","9.824908","48.073657"
9006144,"Halde Bahnwärterhaus (Rißegg)","Halde Bahnwärterhaus","9.809814","48.076409"
9002334,"Wiesengrund (Neenstetten)","Wiesengrund","10.019814","48.548986"
9006146,"Rathaus (Mettenberg (Kr Bib))","Rathaus","9.822960","48.112217"
9002332,"Dorfplatz (Neenstetten)","Dorfplatz","10.021198","48.545062"
9002333,"Himmelreich (Neenstetten)","Himmelreich","10.013966","48.551853"
9006143,"Käpfle (Ummendorf (Kr Bib.))","Käpfle","9.834301","48.064506"
9006142,"Liebherr/B465 (Biberach (Riß))","Liebherr/B465","9.805624","48.089973"
9003111,"Birkenweg (Ehingen (Donau))","Birkenweg","9.709776","48.286400"
9003113,"Büchele (Ehingen (Donau))","Büchele","9.697476","48.286584"
9003115,"Elsternstraße (Ehingen (Donau))","Elsternstraße","9.703750","48.291069"
9003116,"Freibad (Ehingen (Donau))","Freibad","9.729289","48.277951"
9003119,"Geierstraße (Ehingen (Donau))","Geierstraße","9.712060","48.288823"
9003118,"Ulmer Straße/Friedhof (Ehingen (Donau))","Ulmer Straße/Friedhof","9.732255","48.285603"
9001232,"Lehrer Tal (Ulm)","Lehrer Tal","9.976102","48.406529"
9001339,"Am Roten Berg (Ulm)","Am Roten Berg","9.940527","48.400774"
9006431,"Halders (Mittelbuch)","Halders","9.894138","48.043388"
9006430,"Am Heselsberg (Ochsenhausen)","Am Heselsberg","9.954778","48.070519"
9001895,"St. Mammas (Finningen (Neu-Ulm))","St. Mammas","10.076172","48.382695"
9006434,"Grieser (Ochsenhausen)","Grieser","9.952463","48.070880"
9006438,"Liebherr (Ochsenhausen)","Liebherr","9.958770","48.066520"
9006324,"Fockestraße (Laupheim)","Fockestraße","9.878980","48.219418"
9006327,"Rathaus (Laupheim)","Rathaus","9.884422","48.229862"
9006321,"Westbahnhof (Laupheim)","Westbahnhof","9.848040","48.229966"
9006320,"Schule (Bihlafingen)","Schule","9.961203","48.262332"
9006322,"BSZ/Planetarium (Laupheim)","BSZ/Planetarium","9.882568","48.220667"
9006329,"Kreisklinik Parkplatz (Laupheim)","Kreisklinik Parkplatz","9.888971","48.234477"
9006328,"Kreisklinik (Laupheim)","Kreisklinik","9.888068","48.234448"
9001300,"Söflingen (Ulm)","Söflingen","9.955071","48.394943"
9001301,"Ottiliengasse (Ulm)","Ottiliengasse","9.955535","48.396666"
9001871,"Lessingstraße (Neu-Ulm)","Lessingstraße","10.023390","48.396415"
9001872,"Bahnhalt Finninger Str. Nord (Neu-Ulm)","Bahnhalt Finninger Str. Nord","10.026721","48.389523"
9001873,"Coca-Cola (Neu-Ulm)","Coca-Cola","10.027053","48.388549"
9001875,"Otto-Hahn-Straße/Nord (Neu-Ulm)","Otto-Hahn-Straße/Nord","10.036492","48.389274"
9001876,"Otto-Hahn-Straße/Süd (Neu-Ulm)","Otto-Hahn-Straße/Süd","10.035708","48.388579"
9001877,"Böttgerstraße (Neu-Ulm)","Böttgerstraße","10.039499","48.389741"
9001878,"Carl-Zeiss-Straße (Neu-Ulm)","Carl-Zeiss-Straße","10.039130","48.390194"
9001879,"Pfuhler Ried (Neu-Ulm)","Pfuhler Ried","10.039276","48.396677"
9004829,"Schule (Straß (bei Neu-Ulm))","Schule","10.141886","48.414913"
9004821,"Schmiedgasse (Straß (bei Neu-Ulm))","Schmiedgasse","10.135658","48.416144"
9004822,"Römerstraße (Straß (bei Neu-Ulm))","Römerstraße","10.142211","48.413732"
9004823,"Waldblickstraße (Straß (bei Neu-Ulm))","Waldblickstraße","10.152441","48.411507"
9004824,"Martin-Hilti-Weg (Straß (bei Neu-Ulm))","Martin-Hilti-Weg","10.152005","48.416125"
9004825,"Industriestraße (Straß (bei Neu-Ulm))","Industriestraße","10.149104","48.415111"
9004826,"Brücke (Straß (bei Neu-Ulm))","Brücke","10.139295","48.414435"
9004827,"Schillerstraße (Straß (bei Neu-Ulm))","Schillerstraße","10.154707","48.417321"
9004318,"Adlusstraße (Illertissen)","Adlusstraße","10.098603","48.222906"
9004319,"Lessingstraße (Illertissen)","Lessingstraße","10.092405","48.225726"
9004316,"Förderschule/Berufsschule (Illertissen)","Förderschule/Berufsschule","10.111359","48.215948"
9004317,"Josef-Henle-Straße (Illertissen)","Josef-Henle-Straße","10.104601","48.232066"
9004313,"Marktplatz (Illertissen)","Marktplatz","10.106015","48.221486"
9004311,"Bahnhof West (Illertissen)","Bahnhof West","10.099513","48.222025"
9004222,"Heustraße (Illerzell)","Heustraße","10.054645","48.299356"
9004223,"Süd (Illerzell)","Süd","10.062035","48.293721"
9004220,"Gymnasium 1 (Illerzell Gymnasium)","Gymnasium 1","10.054437","48.303027"
9004221,"Gymnasium 2 (Illerzell Gymnasium)","Gymnasium 2","10.055015","48.301637"
9001052,"Donaustadion (Ulm)","Donaustadion","10.007486","48.404856"
9001053,"Wohnpark Friedrichsau (Ulm)","Wohnpark Friedrichsau","10.008947","48.408386"
9001050,"Willy-Brandt-Platz (Ulm)","Willy-Brandt-Platz","10.000257","48.402608"
9001051,"Staufenring (Ulm)","Staufenring","10.004338","48.403427"
9001054,"Donauhalle (Ulm)","Donauhalle","10.010858","48.411418"
9001055,"Wielandstraße (Ulm)","Wielandstraße","10.005065","48.406064"
9001058,"Ostplatz (Ulm)","Ostplatz","10.001079","48.405946"
9001059,"Steinhövelstraße (Ulm)","Steinhövelstraße","10.004140","48.410506"
9004551,"Ritzisried (Ritzisried)","Ritzisried","10.211214","48.216189"
9002653,"Schulzentrum (Laichingen)","Schulzentrum","9.679796","48.489132"
9002652,"Vor Westerlau (Laichingen)","Vor Westerlau","9.678997","48.488058"
9002655,"Wirtschaftsschule (Laichingen)","Wirtschaftsschule","9.696434","48.494833"
9002654,"Mitte (Laichingen)","Mitte","9.688873","48.490058"
9002656,"Suppinger Straße (Laichingen)","Suppinger Straße","9.685138","48.485971"
9001802,"Feuerwehrhaus (Schwaighofen (Neu-Ulm))","Feuerwehrhaus","10.022452","48.384013"
9001805,"Riedwirtshaus (Schwaighofen (Neu-Ulm))","Riedwirtshaus","10.045448","48.372339"
9002537,"Ortsmitte (Radelstetten)","Ortsmitte","9.853636","48.527488"
9002431,"Waage (Temmenhausen)","Waage","9.862330","48.490121"
9002433,"Kalmenhof (Scharenstetten)","Kalmenhof","9.858567","48.504394"
9002432,"Bergstraße (Temmenhausen)","Bergstraße","9.860717","48.493118"
9003432,"Haldenstraße (Reutlingendorf)","Haldenstraße","9.560396","48.209300"
9001692,"Rathaus (Unterweiler (Ulm))","Rathaus","9.966492","48.329908"
9001693,"Breite Ost (Unterweiler (Ulm))","Breite Ost","9.970989","48.334466"
9003335,"Rathaus (Öpfingen)","Rathaus","9.801385","48.285816"
9001452,"Schönstadtkapelle (Ulm)","Schönstadtkapelle","9.925071","48.395287"
9001453,"Harthauser Str./Kleingärten (Ulm)","Harthauser Str./Kleingärten","9.932733","48.397024"
9001451,"Kirche Harthausen (Ulm)","Kirche Harthausen","9.914038","48.390726"
9002962,"Schule (Sondernach (Württ))","Schule","9.622306","48.369177"
9002501,"Ortsmitte (Halzhausen)","Ortsmitte","9.924307","48.532500"
9002503,"Untere Wiesen (Halzhausen)","Untere Wiesen","9.938165","48.527729"
9002502,"Am Kiesgraben (Halzhausen)","Am Kiesgraben","9.927057","48.533314"
9002961,"Sondernach (Sondernach (Württ))","Sondernach","9.624977","48.371285"
9006088,"Tannenstraße (Rißegg)","Tannenstraße","9.804480","48.076041"
9006089,"Evangelischer Friedhof (Biberach (Riß))","Evangelischer Friedhof","9.796534","48.101117"
9001249,"Science Park II (Ulm)","Science Park II","9.937291","48.424578"
9006081,"Birkendorfschule (Biberach (Riß))","Birkendorfschule","9.798968","48.104823"
9006082,"Rosenstraße (Rißegg)","Rosenstraße","9.805937","48.073054"
9006083,"Burren (Biberach (Riß))","Burren","9.718218","48.116634"
9006084,"Bürgerheim/Arbeitsamt (Biberach (Riß))","Bürgerheim/Arbeitsamt","9.790584","48.093145"
9006085,"Bürgerheim/Rollinstraße (Biberach (Riß))","Bürgerheim/Rollinstraße","9.793590","48.093070"
9006086,"Berufsschulzentrum (BSZ) (Biberach (Riß))","Berufsschulzentrum","9.799531","48.087489"
9006087,"Dollinger-Realschule (Biberach (Riß))","Dollinger-Realschule","9.786028","48.094516"
9003212,"Ortsmitte (Granheim)","Ortsmitte","9.573258","48.310311"
9003210,"Kindergarten (Dächingen)","Kindergarten","9.614804","48.307767"
9003216,"Abzweigung (Frankenhofen (Württ))","Abzweigung","9.600084","48.328502"
9003217,"Raiffeisenbank (Frankenhofen (Württ))","Raiffeisenbank","9.601082","48.331950"
9003214,"Halle (Granheim)","Halle","9.579360","48.309822"
9003215,"Schule (Frankenhofen (Württ))","Schule","9.603100","48.333801"
9003218,"Tiefenhülen (Tiefenhülen)","Tiefenhülen","9.609543","48.349271"
9006153,"Ritter-von-Essendorf-Straße (Biberach (Riß))","Ritter-von-Essendorf-Straße","9.770769","48.096670"
9006150,"Hirsch (Ringschnait)","Hirsch","9.877033","48.075438"
9006151,"Raiba (Ringschnait)","Raiba","9.882272","48.074184"
9006156,"Bischof-Sproll-Schule (Rißegg)","Bischof-Sproll-Schule","9.801974","48.071931"
9006157,"Halde (Rißegg)","Halde","9.810964","48.070195"
9006154,"Kindergarten (Rißegg)","Kindergarten","9.805411","48.071205"
9006155,"Adler (Rißegg)","Adler","9.804705","48.069789"
9001803,"Milchwerke Schwaben (Schwaighofen (Neu-Ulm))","Milchwerke Schwaben","10.024785","48.382544"
9003108,"Münsinger Straße (Ehingen (Donau))","Münsinger Straße","9.718612","48.287056"
9003109,"Gewerbl. Schulzentrum (Ehingen (Donau))","Gewerbl. Schulzentrum","9.702860","48.284168"
9003107,"Altsteußlinger Straße (Ehingen (Donau))","Altsteußlinger Straße","9.714191","48.285060"
9003105,"Allensteiner Straße (Ehingen (Donau))","Allensteiner Straße","9.707750","48.291845"
9003103,"Albstraße (Ehingen (Donau))","Albstraße","9.707647","48.287358"
9003101,"Adlerstraße (Ehingen (Donau))","Adlerstraße","9.708232","48.289683"
9006428,"Fuchshölzle (Ochsenhausen)","Fuchshölzle","9.940488","48.066896"
9006429,"Fa. Kopf (Ochsenhausen)","Fa. Kopf","9.938046","48.069830"
9006426,"Rose (Mittelbuch)","Rose","9.880440","48.045454"
9006424,"Dürnachstraße (Mittelbuch)","Dürnachstraße","9.881572","48.045778"
9006425,"Adler (Mittelbuch)","Adler","9.880272","48.045842"
9006422,"Rad (Laubach (Kr Bib))","Rad","9.993011","48.086024"
9006423,"Kirche (Laubach (Kr Bib))","Kirche","9.992744","48.084659"
9006420,"Goppertshofen (Goppertshofen (BC))","Goppertshofen","9.946260","48.086778"
9006421,"Hattenburg (Hattenburg)","Hattenburg","9.928447","48.060617"
9006332,"Uhlmannstraße (Laupheim)","Uhlmannstraße","9.874518","48.232429"
9006333,"Sportplatz (Untersulmetingen)","Sportplatz","9.827603","48.224692"
9006330,"Bühler-Linden-Straße (Laupheim)","Bühler-Linden-Straße","9.892911","48.228079"
9006331,"Schlatt (Laupheim)","Schlatt","9.898918","48.227546"
9006336,"Rabenstraße (Laupheim)","Rabenstraße","9.880508","48.226924"
9006334,"Weldenstraße (Laupheim)","Weldenstraße","9.868835","48.228299"
9006339,"Löwen (Obersulmetingen)","Löwen","9.827989","48.217764"
9001993,"Bauernstraße (Steinheim (Neu-Ulm))","Bauernstraße","10.102514","48.400279"
9001992,"Fahlheimer Weg (Steinheim (Neu-Ulm))","Fahlheimer Weg","10.105755","48.400895"
9004145,"Hopfenweg (Aufheim (Schwaben))","Hopfenweg","10.064562","48.337405"
9004142,"Grundschule (Aufheim (Schwaben))","Grundschule","10.067547","48.336298"
9004141,"Uffholtzer Straße (Aufheim (Schwaben))","Uffholtzer Straße","10.061759","48.335606"
9001994,"Waage (Steinheim (Neu-Ulm))","Waage","10.106740","48.399591"
9004811,"Pulsweg (Leibi)","Pulsweg","10.109964","48.430451"
9001841,"Von-Halle-Straße (Hausen (Neu-Ulm))","Von-Halle-Straße","10.064694","48.345048"
9001842,"Weiherstraße (Hausen (Neu-Ulm))","Weiherstraße","10.067816","48.343365"
9001202,"Multscherschule (Ulm)","Multscherschule","9.967632","48.408607"
9001201,"Fort Unterer Eselsberg (Ulm)","Fort Unterer Eselsberg","9.965445","48.411503"
9001200,"Eselsberg Hasenkopf (Ulm)","Eselsberg Hasenkopf","9.963178","48.414516"
9002682,"Lange Straße (Heroldstatt)","Lange Straße","9.668514","48.445951"
9002231,"Wettingen (Wettingen)","Wettingen","10.119352","48.519382"
9002681,"Neue Ortsmitte (Heroldstatt)","Neue Ortsmitte","9.660174","48.442834"
9004781,"Neuhausen (Neuhausen (bei Neu-Ulm))","Neuhausen","10.095400","48.379069"
9002647,"Hauptstraße (Suppingen)","Hauptstraße","9.710026","48.458598"
9004566,"Rennertshofen (Rennertshofen (Kreis Neu-Ulm))","Rennertshofen","10.231574","48.245876"
9004561,"Christertshofen (Christertshofen)","Christertshofen","10.225007","48.229695"
9002641,"Kirche (Machtolsheim)","Kirche","9.740092","48.494551"
9002649,"Blaubeurer Straße (Suppingen)","Blaubeurer Straße","9.714105","48.456370"
9002331,"Eisental (Neenstetten)","Eisental","10.044193","48.546258"
9001192,"Kesselbronn (Kesselbronn)","Kesselbronn","10.023295","48.450914"
9001191,"Haslach (Haslach (Ulm))","Haslach","10.017828","48.443174"
9002422,"Lindenstraße (Tomerdingen)","Lindenstraße","9.910317","48.484022"
9002421,"Martinusstraße (Tomerdingen)","Martinusstraße","9.906357","48.481176"
9002425,"Eschenlauh (Tomerdingen)","Eschenlauh","9.893319","48.485936"
9001423,"Schule (Eggingen b Ulm)","Schule","9.874884","48.361803"
9001422,"Rathaus (Eggingen b Ulm)","Rathaus","9.878942","48.363922"
9001421,"Ringinger Straße (Eggingen b Ulm)","Ringinger Straße","9.879769","48.361037"
9003591,"Hausen am Bussen (Hausen am Bussen)","Hausen am Bussen","9.625975","48.211461"
9002514,"Hauptstraße (Lonsee)","Hauptstraße","9.917753","48.543694"
9002512,"Im Mengsel (Lonsee)","Im Mengsel","9.922259","48.541986"
9002513,"Nohl (Lonsee)","Nohl","9.918667","48.545585"
9002511,"Seeblick (Lonsee)","Seeblick","9.923086","48.538337"
9001737,"Landratsamt (Neu-Ulm)","Landratsamt","10.009106","48.400012"
9001736,"Wiley-Club (Neu-Ulm)","Wiley-Club","10.007759","48.381067"
9001735,"Marlene-Dietrich-Straße (Neu-Ulm)","Marlene-Dietrich-Straße","10.009517","48.384648"
9001734,"Bradleystraße (Neu-Ulm)","Bradleystraße","10.011820","48.385725"
9001733,"Riedstraße (Neu-Ulm)","Riedstraße","10.010918","48.387874"
9001732,"Escheugraben (Neu-Ulm)","Escheugraben","10.005990","48.387908"
9001731,"Steubenstraße (Neu-Ulm)","Steubenstraße","10.007761","48.390051"
9001738,"Lessinggymnasium (Neu-Ulm)","Lessinggymnasium","10.006828","48.398872"
9003771,"Rathaus (Hüttisheim)","Rathaus","9.943177","48.278894"
9003773,"Schule (Hüttisheim)","Schule","9.946777","48.278334"
9003772,"Herdweg (Hüttisheim)","Herdweg","9.944905","48.276928"
9003777,"Humlangen (Humlangen)","Humlangen","9.947955","48.293208"
9002351,"Holzkirch (Holzkirch)","Holzkirch","9.996102","48.531334"
9006181,"Weingartenbergstraße (Biberach (Riß))","Weingartenbergstraße","9.782094","48.104274"
9006180,"Am Nonnenberg (Burgrieden)","Am Nonnenberg","9.929958","48.240978"
9006183,"Wielandstraße (Biberach (Riß))","Wielandstraße","9.786409","48.100143"
9006182,"Holzmarkt (Biberach (Riß))","Holzmarkt","9.787109","48.096757"
9006185,"Berliner Platz/Valenceallee (Biberach (Riß))","Berliner Platz/Valenceallee","9.787988","48.085752"
9006184,"Stadthalle (Biberach (Riß))","Stadthalle","9.785420","48.096049"
9006187,"Wilhelm-Leger-Straße (Biberach (Riß))","Wilhelm-Leger-Straße","9.797235","48.091777"
9006186,"Malischule/FH (Biberach (Riß))","Malischule/FH","9.795405","48.092356"
9006189,"Bergerhausen Bühläcker (Bergerhausen (Kr BC))","Bergerhausen Bühläcker","9.807348","48.100601"
9006188,"Hugo-Häring-Straße (Biberach (Riß))","Hugo-Häring-Straße","9.808611","48.095555"
9002813,"Busbahnhof (Blaubeuren)","Busbahnhof","9.786365","48.413146"
9003179,"Kapellenstraße (Nasgenstadt)","Kapellenstraße","9.750191","48.278329"
9003177,"Kapelle (Nasgenstadt)","Kapelle","9.758087","48.278349"
9003175,"Gollenäcker (Nasgenstadt)","Gollenäcker","9.746741","48.280123"
9003362,"Dreifaltigkeitskapelle (Oberdischingen)","Dreifaltigkeitskapelle","9.827632","48.299021"
9003363,"Abzw. Ersingen (Oberdischingen)","Abzw. Ersingen","9.841917","48.301363"
9006459,"Neues Haus (Daugendorf)","Neues Haus","9.488601","48.181002"
9006458,"Neues Haus (Bechingen)","Neues Haus","9.496783","48.198324"
9006452,"Wennedach (Wennedach)","Wennedach","9.906772","48.116640"
9006451,"Städt. Kindergarten (Ochsenhausen)","Städt. Kindergarten","9.956197","48.065974"
9006450,"Karrenweg 19 (Ochsenhausen)","Karrenweg 19","9.960364","48.071435"
9006456,"Bundesstraße (Bechingen)","Bundesstraße","9.491006","48.199077"
9006455,"Schule (Oggelshausen)","Schule","9.648211","48.071337"
9006454,"Oggelshausen (Oggelshausen)","Oggelshausen","9.650487","48.072008"
9003364,"Schule (Oberdischingen)","Schule","9.831052","48.298798"
9003007,"Kindergarten (Allmendingen)","Kindergarten","9.726612","48.326639"
9003005,"Bahnhof (Allmendingen)","Bahnhof","9.722853","48.327840"
9003004,"Schule (Allmendingen)","Schule","9.717982","48.324759"
9003002,"Rathaus (Allmendingen)","Rathaus","9.724349","48.327750"
9003000,"Lichseweg (Allmendingen)","Lichseweg","9.714882","48.326802"
9003009,"Waldfreibad (Allmendingen)","Waldfreibad","9.712472","48.329965"
9003008,"Schwenksweiler (Allmendingen)","Schwenksweiler","9.735635","48.324801"
9002613,"Rathaus (Nellingen (Alb))","Rathaus","9.790749","48.542335"
9004154,"Thomas-Mann-Straße (Wullenstetten)","Thomas-Mann-Straße","10.068489","48.320066"
9004155,"Meinrad-Mayer-Schule (Wullenstetten)","Meinrad-Mayer-Schule","10.071125","48.319745"
9004151,"Kirche Mariä Verkündigung (Wullenstetten)","Kirche Mariä Verkündigung","10.070498","48.316837"
9004152,"Hirschweihe (Wullenstetten)","Hirschweihe","10.065713","48.315640"
9004153,"Sportpark (Wullenstetten)","Sportpark","10.078367","48.316628"
9004802,"West (Nersingen)","West","10.117382","48.426098"
9004803,"Seniorencentrum (Nersingen)","Seniorencentrum","10.126056","48.426041"
9001995,"Feuerwehr (Steinheim (Neu-Ulm))","Feuerwehr","10.108362","48.398406"
9004801,"Bahnhof (Nersingen)","Bahnhof","10.117991","48.429843"
9004806,"Ortsmitte (Nersingen)","Ortsmitte","10.122104","48.428822"
9004805,"Friedhofstraße (Nersingen)","Friedhofstraße","10.131635","48.428432"
9001852,"Weiler Weg (Holzschwang)","Weiler Weg","10.095438","48.341819"
9001851,"Weidachstraße (Holzschwang)","Weidachstraße","10.093737","48.346835"
9001210,"Burgunderweg (Ulm)","Burgunderweg","9.961517","48.408820"
9001218,"Lupferbrücke (Ulm)","Lupferbrücke","9.956813","48.403589"
9001219,"In der Wanne (Ulm)","In der Wanne","9.954294","48.403232"
9006432,"Dr.-Hans-Liebherr-Str. 39 (Ochsenhausen)","Dr.-Hans-Liebherr-Str. 39","9.940345","48.074523"
9002632,"Ortsmitte (Merklingen (Alb))","Ortsmitte","9.756040","48.509736"
9004571,"Nordholz (Nordholz (bei Illertissen))","Nordholz","10.216729","48.242733"
9004576,"Ebersbach (Ebersbach (Buch))","Ebersbach","10.202358","48.239107"
9002635,"Gewerbegebiet (Merklingen (Alb))","Gewerbegebiet","9.757793","48.514778"
9004771,"Ortsmitte (Holzheim (bei Neu-Ulm))","Ortsmitte","10.104848","48.380229"
9004772,"Feuerwehr (Holzheim (bei Neu-Ulm))","Feuerwehr","10.107846","48.379633"
9001504,"Maybachstraße (Donautal)","Maybachstraße","9.946412","48.361299"
9001506,"Benzstraße (Donautal)","Benzstraße","9.942581","48.366520"
9001507,"Boschstraße (Donautal)","Boschstraße","9.954285","48.371010"
9001500,"Steinbeisstraße (Donautal)","Steinbeisstraße","9.953350","48.368617"
9001501,"Liststraße (Donautal)","Liststraße","9.949306","48.369639"
9001502,"Daimlerstraße (Donautal)","Daimlerstraße","9.952898","48.366813"
9001503,"Heuweg (Donautal)","Heuweg","9.951967","48.364653"
9004483,"Bahnhof (Weiler (Osterberg))","Bahnhof","10.159777","48.121226"
9004481,"Ort (Weiler (Osterberg))","Ort","10.153977","48.122544"
9002749,"Hohenstein (Hohenstein (Blaustein))","Hohenstein","9.867603","48.449496"
9002748,"Lautern (Lautern (Blaustein))","Lautern","9.862339","48.446784"
9002747,"Abzw. Weidach (Lautern (Blaustein))","Abzw. Weidach","9.885441","48.439791"
9002743,"Alte Schule (Weidach (Alb-Donau-Kr))","Alte Schule","9.892270","48.443839"
9002742,"Weidacher Hütte (Weidach (Alb-Donau-Kr))","Weidacher Hütte","9.881032","48.446678"
9002741,"Weidach (Weidach (Alb-Donau-Kr))","Weidach","9.891183","48.444306"
9001431,"Allewind (Ermingen)","Allewind","9.892699","48.376577"
9001432,"Panoramastraße (Ermingen)","Panoramastraße","9.896488","48.377860"
9001433,"Waldstraße (Ermingen)","Waldstraße","9.897760","48.381906"
9002568,"Lindenstraße (Stubersheim)","Lindenstraße","9.917263","48.594463"
9002562,"Neue Straße (Hofstett-Emerbuch)","Neue Straße","9.913626","48.581524"
9002561,"Burgstraße (Hofstett-Emerbuch)","Burgstraße","9.916055","48.582395"
9002566,"Bräunisheimer Straße (Stubersheim)","Bräunisheimer Straße","9.920321","48.594888"
9001724,"Memminger Straße (Neu-Ulm)","Memminger Straße","10.003938","48.385156"
9001725,"Edisoncenter (Neu-Ulm)","Edisoncenter","10.006765","48.379277"
9001726,"Real-/Hauptschule (Neu-Ulm)","Real-/Hauptschule","10.000393","48.377911"
9001727,"Wiley-Süd (Neu-Ulm)","Wiley-Süd","10.010568","48.376357"
9001720,"Friedhof (Neu-Ulm)","Friedhof","10.012198","48.391837"
9001722,"Wiblinger Steig (Neu-Ulm)","Wiblinger Steig","9.997151","48.385368"
9001723,"Gartenstraße (Neu-Ulm)","Gartenstraße","9.999847","48.392755"
9001728,"Parkstraße (Neu-Ulm)","Parkstraße","9.991245","48.389925"
9001729,"Meininger Allee (Neu-Ulm)","Meininger Allee","10.008348","48.395163"
9002361,"Breitingen (Breitingen)","Breitingen","9.991562","48.517263"
9002362,"Abzw. Breitingen (Breitingen)","Abzw. Breitingen","9.987273","48.505510"
9003767,"Weinstetten (Weinstetten)","Weinstetten","9.974327","48.291675"
9002385,"Lange Wiese (Bernstadt (Württ))","Lange Wiese","10.019232","48.499782"
9003703,"Ziegelei (Unterkirchberg)","Ziegelei","10.011925","48.328366"
9002161,"Hörvelsingen (Hörvelsingen)","Hörvelsingen","10.030177","48.485646"
9003498,"Reichertstraße (Rottenacker)","Reichertstraße","9.694434","48.238173"
9006198,"Krummer Weg/Hochvogelstraße (Biberach (Riß))","Krummer Weg/Hochvogelstraße","9.773890","48.104275"
9006199,"Freibad (Biberach (Riß))","Freibad","9.799607","48.096707"
9006197,"Birkenäcker (Rißegg)","Birkenäcker","9.800434","48.075611"
9006194,"Kindergarten (Burgrieden)","Kindergarten","9.930114","48.242910"
9006195,"Teich (Rißegg)","Teich","9.804086","48.069668"
9006192,"Berliner Pl./Schlierenbachstr. (Biberach (Riß))","Berliner Pl./Schlierenbachstr.","9.787988","48.085752"
9006190,"Bergerhausen Ortsmitte (Bergerhausen (Kr BC))","Bergerhausen Ortsmitte","9.809134","48.099797"
9006191,"Widdersteinstraße (Biberach (Riß))","Widdersteinstraße","9.776335","48.106085"
9003168,"Rosengarten (Ehingen (Donau))","Rosengarten","9.739298","48.288094"
9003161,"Rosenstraße (Ehingen (Donau))","Rosenstraße","9.723797","48.295432"
9003162,"Max-Planck-Straße (Ehingen (Donau))","Max-Planck-Straße","9.716434","48.292214"
9003163,"Nobelstraße (Ehingen (Donau))","Nobelstraße","9.721334","48.293739"
9003164,"Betriebshof Fa. Bayer (Ehingen (Donau))","Betriebshof Fa. Bayer","9.715381","48.291159"
9003165,"C.F.-Goerdeler-Straße (Ehingen (Donau))","C.F.-Goerdeler-Straße","9.738381","48.287128"
9003166,"A.-Schmorell-Straße (Ehingen (Donau))","A.-Schmorell-Straße","9.742849","48.284842"
9003167,"Eugen-Bolz-Straße (Ehingen (Donau))","Eugen-Bolz-Straße","9.741310","48.287469"
9006483,"Zell (Riedlingen (Württ))","Zell","9.504851","48.202111"
9006449,"Untere Wiesen (Ochsenhausen)","Untere Wiesen","9.948587","48.076065"
9006440,"ZOB (Ochsenhausen)","ZOB","9.953186","48.065721"
9006442,"Grundschule (Ochsenhausen)","Grundschule","9.949976","48.066979"
9006445,"Ziegelstadel (Ochsenhausen)","Ziegelstadel","9.937594","48.064167"
9006447,"Adler (Reinstetten)","Adler","9.946785","48.110247"
9001528,"Gasthof Donautal (Donautal)","Gasthof Donautal","9.955523","48.375119"
9003014,"Ortsmitte (Weilersteußlingen)","Ortsmitte","9.659543","48.340866"
9003016,"Schule (Weilersteußlingen)","Schule","9.657171","48.341086"
9003017,"Grötzingen (Grötzingen (b Ehingen))","Grötzingen","9.643271","48.342711"
9003010,"Panoramastraße (Allmendingen)","Panoramastraße","9.711512","48.324988"
9003011,"Ennahofen (Ennahofen)","Ennahofen","9.660361","48.349917"
9003514,"Bühlstraße (Rottenacker)","Bühlstraße","9.689450","48.235928"
9004161,"Kirche Mariä Geburt (Witzighausen)","Kirche Mariä Geburt","10.101891","48.314507"
9004163,"Geflügelhof (Witzighausen)","Geflügelhof","10.115513","48.312245"
9004164,"Kindergarten (Witzighausen)","Kindergarten","10.101267","48.316213"
9001881,"Lise-Meitner-Ring (Neu-Ulm)","Lise-Meitner-Ring","10.028952","48.384323"
9001880,"Briefverteilzentrum (Neu-Ulm)","Briefverteilzentrum","10.036144","48.384780"
9001225,"Bleicher Hag (Ulm)","Bleicher Hag","9.971837","48.405972"
9001220,"Bahnhof Söflingen (Ulm)","Bahnhof Söflingen","9.958621","48.402765"
9001222,"Beringerbrücke (Ulm)","Beringerbrücke","9.966423","48.404687"
9004909,"Heusteige (Oberelchingen)","Heusteige","10.078938","48.448993"
9004908,"Grundschule (Oberelchingen)","Grundschule","10.085392","48.451136"
9004903,"Bahnhof (Unterelchingen)","Bahnhof","10.098283","48.452129"
9004901,"Gasthof Zahn (Unterelchingen)","Gasthof Zahn","10.104944","48.458801"
9004900,"Klosterstraße (Unterelchingen)","Klosterstraße","10.100720","48.456053"
9004907,"Göttinger Weg (Oberelchingen)","Göttinger Weg","10.085634","48.452330"
9004906,"Grundschule (Unterelchingen)","Grundschule","10.103712","48.460593"
9003147,"Winckelhoferstraße (Ehingen (Donau))","Winckelhoferstraße","9.734874","48.282160"
9001089,"Eichenhang (Ulm)","Eichenhang","10.003668","48.420843"
9001088,"Eichengrund (Ulm)","Eichengrund","10.002836","48.419070"
9001081,"Eichberg (Ulm)","Eichberg","10.005493","48.422967"
9001080,"Eugen-Bolz-Straße (Ulm)","Eugen-Bolz-Straße","10.017764","48.420368"
9001083,"Alfred-Delp-Weg (Ulm)","Alfred-Delp-Weg","10.014172","48.423206"
9001082,"Eichberg Nord (Ulm)","Eichberg Nord","10.006929","48.425860"
9001085,"Örlinger Wald (Ulm)","Örlinger Wald","10.000125","48.421351"
9004582,"Lettengasse (Obenhausen)","Lettengasse","10.176265","48.237228"
9004581,"Bucher Straße (Obenhausen)","Bucher Straße","10.177102","48.233253"
9001086,"Wendeplatte Eichenhang (Ulm)","Wendeplatte Eichenhang","9.999500","48.420493"
9004741,"Diepertshofen (Diepertshofen)","Diepertshofen","10.161698","48.345269"
9004745,"Kuttenthalmühle (Erbishofen)","Kuttenthalmühle","10.160558","48.336674"
9001532,"Siemensstraße (Donautal)","Siemensstraße","9.954622","48.362284"
9001534,"Voithstraße (Donautal)","Voithstraße","9.956191","48.367523"
9004341,"Dorfplatz (Tiefenbach (bei Illertissen))","Dorfplatz","10.121835","48.253169"
9004342,"Gemeindehalle (Tiefenbach (bei Illertissen))","Gemeindehalle","10.120461","48.247633"
9003517,"Schulstraße (Rottenacker)","Schulstraße","9.683572","48.232285"
9003516,"Etimex (Rottenacker)","Etimex","9.699224","48.236984"
9002191,"Stuppelau (Stuppelau)","Stuppelau","10.070726","48.494908"
9003229,"Mundingen (Mundingen (Ehingen))","Mundingen","9.581152","48.288373"
9001404,"Erbacher Straße (Grimmelfingen)","Erbacher Straße","9.940508","48.366825"
9001401,"Häberlinweg (Grimmelfingen)","Häberlinweg","9.941287","48.373203"
9001400,"Rathausstraße (Grimmelfingen)","Rathausstraße","9.936106","48.371852"
9001403,"Eisenbahnstraße (Grimmelfingen)","Eisenbahnstraße","9.937022","48.370271"
9002751,"Bockgasse (Bermaringen)","Bockgasse","9.839148","48.461002"
9002752,"Raiffeisenbank (Bermaringen)","Raiffeisenbank","9.843747","48.460339"
9002311,"Söglingen (Söglingen)","Söglingen","10.037876","48.568528"
9004503,"Schalkshofen (Schalkshofen)","Schalkshofen","10.184559","48.182489"
9004502,"Babenhauser Straße 40 (Oberroth (bei Illertissen))","Babenhauser Straße 40","10.204111","48.155458"
9004501,"Oberroth (Oberroth (bei Illertissen))","Oberroth","10.191150","48.173248"
9003806,"Wochenau (Wochenau)","Wochenau","10.037373","48.288434"
9003801,"Dorndorf (Dorndorf (Iller))","Dorndorf","10.020445","48.279538"
9002578,"Binsenstraße (Schalkstetten)","Binsenstraße","9.913955","48.616234"
9002571,"Grubenweg (Bräunisheim)","Grubenweg","9.940237","48.602973"
9003573,"Wachinger Straße (Emerkingen)","Wachinger Straße","9.656189","48.210942"
9003572,"Munderkinger Straße (Emerkingen)","Munderkinger Straße","9.656383","48.214565"
9003571,"Kirchstraße (Emerkingen)","Kirchstraße","9.658414","48.211316"
9002577,"Schule (Schalkstetten)","Schule","9.914830","48.613637"
9001710,"Rathaus (Neu-Ulm)","Rathaus","10.000746","48.395202"
9001713,"Augsburger Tor (Neu-Ulm)","Augsburger Tor","10.004664","48.398055"
9001715,"Gymnasium (Neu-Ulm)","Gymnasium","10.007373","48.398418"
9001714,"Kasernstraße (Neu-Ulm)","Kasernstraße","10.006785","48.396705"
9001717,"Glacisstraße (Neu-Ulm)","Glacisstraße","10.008556","48.396807"
9001719,"Waldeck (Neu-Ulm)","Waldeck","10.009979","48.394330"
9001718,"Hallenbad (Neu-Ulm)","Hallenbad","10.012149","48.398214"
9003711,"Oberkirchberg (Oberkirchberg (KrUL))","Oberkirchberg","10.019448","48.323515"
9003717,"Beutelreusch (Beutelreusch)","Beutelreusch","10.014716","48.307279"
9003489,"Schillerstraße (Munderkingen)","Schillerstraße","9.644515","48.233842"
9003488,"Neudorfer Straße (Munderkingen)","Neudorfer Straße","9.651826","48.240330"
9002171,"Osterstetten (Osterstetten)","Osterstetten","10.053412","48.496452"
9003483,"Danziger Straße (Munderkingen)","Danziger Straße","9.653862","48.241577"
9003482,"Brunnenberg (Munderkingen)","Brunnenberg","9.641005","48.240579"
9003481,"Bahnhof (Munderkingen)","Bahnhof","9.645426","48.237776"
9003480,"Stadionweg (Munderkingen)","Stadionweg","9.649088","48.233528"
9003487,"Rottenacker Str./Neukauf (Munderkingen)","Rottenacker Str./Neukauf","9.649714","48.236160"
9003486,"Königsberger Straße (Munderkingen)","Königsberger Straße","9.644519","48.241684"
9003485,"Emerkinger Straße (Munderkingen)","Emerkinger Straße","9.645599","48.229060"
9003484,"Alemannenstraße (Munderkingen)","Alemannenstraße","9.645032","48.230026"
9003157,"Ortsmitte (Berkach (Ehingen))","Ortsmitte","9.721856","48.298313"
9003151,"Adolffstraße (Ehingen (Donau))","Adolffstraße","9.722878","48.286652"
9003153,"Im Gries (Ehingen (Donau))","Im Gries","9.727820","48.289291"
9003620,"Merzenbeund (Erbach (Donau))","Merzenbeund","9.885266","48.331686"
9003159,"Berkacher Grund (Ehingen (Donau))","Berkacher Grund","9.727750","48.292844"
9006299,"Landesstraße (Andelfingen (Württ))","Landesstraße","9.405974","48.146187"
9006298,"Alte Molkerei (Andelfingen (Württ))","Alte Molkerei","9.410459","48.147502"
9006295,"Löwen (Oberopfingen)","Löwen","10.123037","48.047124"
9006297,"Ort (Unteropfingen)","Ort","10.129604","48.058536"
9006291,"Krone (Sinningen (Kr BC))","Krone","10.094551","48.146473"
9006290,"Marktstraße (Kirchberg (Iller))","Marktstraße","10.079131","48.133407"
9006293,"Hochhaus (Kirchdorf a.d.Iller)","Hochhaus","10.129922","48.078552"
9006292,"Haltestelle L 260 (Sinningen (Kr BC))","Haltestelle L 260","10.091158","48.145570"
9006059,"Schwaigfurt (Otterswang b Aulend.)","Schwaigfurt","9.662081","47.979919"
9006058,"Rathaus (Otterswang b Aulend.)","Rathaus","9.645984","47.977061"
9006057,"Sattenbeuren (Bad Schussenried)","Sattenbeuren","9.642309","48.028417"
9006056,"Olzreute (Olzreute)","Olzreute","9.681351","48.008010"
9006055,"Lufthütte (Lufthütte)","Lufthütte","9.653769","47.991083"
9006054,"Laimbach (Laimbach (Württ))","Laimbach","9.676231","47.976167"
9006053,"Griesweg (Kürnbach (Kr Biber.))","Griesweg","9.672363","47.990840"
9006052,"Kleinwinnaden (Kleinwinnaden)","Kleinwinnaden","9.666028","48.013919"
9006051,"Hopferbach (Hopferbach)","Hopferbach","9.623779","48.001682"
9006050,"Fünfhäuser Abzweig (Bad Schussenried)","Fünfhäuser Abzweig","9.633937","47.988586"
9006277,"Hagnaufurt (Hagnaufurt)","Hagnaufurt","9.714824","47.984252"
9006276,"Schulbushaltestelle (Grodt)","Schulbushaltestelle","9.730735","48.041783"
9006275,"Gensenweiler (Gensenweiler)","Gensenweiler","9.703688","47.996786"
9006274,"Degernau (Degernau (Ingold.))","Degernau","9.773125","48.034482"
9006273,"Gemeindehaus (Unteressendorf)","Gemeindehaus","9.770264","48.007178"
9006272,"Bahnhof (Unteressendorf)","Bahnhof","9.761816","48.010454"
9006271,"Schweinhausen (Schweinhausen)","Schweinhausen","9.802421","48.038534"
9006270,"Rathaus (Hochdorf (Riß))","Rathaus","9.786852","48.025377"
9006279,"Rathaus (Ingoldingen)","Rathaus","9.739944","48.025599"
9006278,"Hervetsweiler (Hervetsweiler)","Hervetsweiler","9.705308","47.993727"
9003022,"Hausen o.A. (Hausen o.A.)","Hausen o.A.","9.734283","48.313316"
9006475,"Kreisgymnasium (Riedlingen (Württ))","Kreisgymnasium","9.471946","48.158264"
9006474,"Grabenstraße (Riedlingen (Württ))","Grabenstraße","9.475223","48.155040"
9006477,"Klinge/Hohly Straße (Riedlingen (Württ))","Klinge/Hohly Straße","9.473647","48.164957"
9006476,"Kreiskrankenhaus (Riedlingen (Württ))","Kreiskrankenhaus","9.478014","48.161855"
9006471,"Klinge/Fischer Straße (Riedlingen (Württ))","Klinge/Fischer Straße","9.477638","48.164743"
9006470,"ZOB/Bahnhof (Riedlingen (Württ))","ZOB/Bahnhof","9.484564","48.149398"
9006473,"AOK (Riedlingen (Württ))","AOK","9.480820","48.149972"
9006472,"Alte Poststraße (Riedlingen (Württ))","Alte Poststraße","9.489293","48.150646"
9006478,"Stadthalle (Riedlingen (Württ))","Stadthalle","9.477181","48.151705"
9002802,"Backhaus (Asch (Württ))","Backhaus","9.818225","48.437115"
9002803,"Flinsenlauhweg (Asch (Württ))","Flinsenlauhweg","9.818397","48.432689"
9003469,"Neuburg (Neuburg (Lauterach))","Neuburg","9.590003","48.246087"
9003581,"Unterwachingen (Unterwachingen)","Unterwachingen","9.643525","48.203216"
9002441,"Scharenstetten (Scharenstetten)","Scharenstetten","9.850791","48.513615"
9001896,"In den Zwieren (Finningen (Neu-Ulm))","In den Zwieren","10.076603","48.378788"
9001233,"Schießstände (Ulm)","Schießstände","9.970215","48.420132"
9002443,"Karrenweg (Scharenstetten)","Karrenweg","9.843359","48.518445"
9001893,"Angelweg (Finningen (Neu-Ulm))","Angelweg","10.076678","48.384291"
9001891,"Breitenhof (Finningen (Neu-Ulm))","Breitenhof","10.047809","48.387400"
9004918,"Glockerau I (Oberelchingen)","Glockerau I","10.094405","48.435232"
9004919,"Glockerau II (Oberelchingen)","Glockerau II","10.090011","48.433259"
9004171,"Kapelle (Hittistetten)","Kapelle","10.096397","48.327411"
9004910,"Hauptschule (Oberelchingen)","Hauptschule","10.071848","48.446119"
9004911,"Bahnhof (Oberelchingen)","Bahnhof","10.084459","48.447952"
9004912,"Thalfinger Str. (Oberelchingen)","Thalfinger Str.","10.073041","48.445640"
9002618,"Schießwiesenweg (Nellingen (Alb))","Schießwiesenweg","9.795104","48.542827"
9002615,"Linde (Nellingen (Alb))","Linde","9.786070","48.545380"
9002614,"Aicher Straße (Nellingen (Alb))","Aicher Straße","9.794434","48.538973"
9004596,"Gannertshofen (Gannertshofen)","Gannertshofen","10.169473","48.259358"
9002616,"Schule (Nellingen (Alb))","Schule","9.785614","48.541309"
9002611,"Oppinger Straße (Nellingen (Alb))","Oppinger Straße","9.806906","48.541531"
9004591,"Mitte (Dietershofen (bei Illertissen))","Mitte","10.178178","48.247245"
9004592,"Abzw. Staatsstr. (Dietershofen (bei Illertissen))","Abzw. Staatsstr.","10.172235","48.247054"
9002612,"Römerstraße (Nellingen (Alb))","Römerstraße","9.788244","48.544987"
9004352,"Bayernstraße (Jedesheim)","Bayernstraße","10.114040","48.203052"
9004353,"Neuer Weg (Jedesheim)","Neuer Weg","10.117579","48.203099"
9004351,"Rathaus (Jedesheim)","Rathaus","10.109974","48.202291"
9001412,"Ensostraße (Einsingen)","Ensostraße","9.905744","48.352517"
9001413,"Hirsch (Einsingen)","Hirsch","9.900167","48.352273"
9001411,"Abzw. Einsingen (Einsingen)","Abzw. Einsingen","9.918426","48.352425"
9001416,"Hohe Steige (Einsingen)","Hohe Steige","9.913924","48.352686"
9001414,"Kirche (Einsingen)","Kirche","9.895140","48.354120"
9001415,"Bei den Weihern (Einsingen)","Bei den Weihern","9.898470","48.353959"
9002761,"Gasthof Blautal (Arnegg b Ulm)","Gasthof Blautal","9.881317","48.415479"
9002763,"Bildstöckle (Arnegg b Ulm)","Bildstöckle","9.874052","48.413331"
9002762,"Rathaus (Arnegg b Ulm)","Rathaus","9.881314","48.414526"
9001097,"Neutorstraße (Ulm)","Neutorstraße","9.986161","48.402846"
9001092,"Im Lehrer Feld West (Lehr)","Im Lehrer Feld West","9.967934","48.453659"
9001093,"Im Lehrer Feld Süd (Lehr)","Im Lehrer Feld Süd","9.970797","48.452043"
9001090,"Eiselauer Weg (Lehr)","Eiselauer Weg","9.973477","48.452255"
9001091,"Im Lehrer Feld Nord (Lehr)","Im Lehrer Feld Nord","9.970233","48.455079"
9002541,"Abzw. Lonsee (Urspring (Alb-Donau-Kr))","Abzw. Lonsee","9.893972","48.546876"
9002812,"Karlstraße (Blaubeuren)","Karlstraße","9.786693","48.409034"
9002811,"Bahnhof (Blaubeuren)","Bahnhof","9.791949","48.403934"
9002542,"Schule (Urspring (Alb-Donau-Kr))","Schule","9.893472","48.549209"
9003814,"Gasthof zur Brücke (Illerrieden)","Gasthof zur Brücke","10.054306","48.271111"
9003815,"Max-Eyth-Straße (Illerrieden)","Max-Eyth-Straße","10.058222","48.272874"
9003361,"Kirchplatz (Oberdischingen)","Kirchplatz","9.832177","48.301641"
9003811,"Schlössle (Illerrieden)","Schlössle","10.046013","48.270747"
9003812,"Altes Rathaus (Illerrieden)","Altes Rathaus","10.050452","48.271084"
9003813,"Illertalhalle (Illerrieden)","Illertalhalle","10.054538","48.269967"
9003561,"Grundsheim (Grundsheim)","Grundsheim","9.667670","48.177115"
9001708,"Petrusplatz (Neu-Ulm)","Petrusplatz","9.998290","48.394612"
9001709,"Maximilianstraße (Neu-Ulm)","Maximilianstraße","10.001205","48.395891"
9001706,"Schützenstraße (Neu-Ulm)","Schützenstraße","9.997610","48.393683"
9001707,"Donaucenter (Neu-Ulm)","Donaucenter","9.997043","48.394344"
9001704,"Illerbrücke (Neu-Ulm)","Illerbrücke","9.989695","48.372680"
9001705,"Amtsgericht (Neu-Ulm)","Amtsgericht","9.994522","48.391803"
9001702,"Atlantis (Neu-Ulm)","Atlantis","9.987088","48.385149"
9001703,"Jakobsruhe (Neu-Ulm)","Jakobsruhe","9.989909","48.381644"
9001700,"ZUP (Neu-Ulm)","ZUP","10.003129","48.392097"
9001701,"Donaubad (Neu-Ulm)","Donaubad","9.988694","48.388616"
9003701,"Post (Unterkirchberg)","Post","9.999637","48.339985"
9003702,"Hauptstraße (Unterkirchberg)","Hauptstraße","9.998785","48.335720"
9002384,"Feuerwehrgerätehaus (Bernstadt (Württ))","Feuerwehrgerätehaus","10.024448","48.500752"
9002382,"Frauenstraße (Bernstadt (Württ))","Frauenstraße","10.026667","48.500066"
9002381,"Lehmgrube (Bernstadt (Württ))","Lehmgrube","10.026044","48.496043"
9002141,"Krone (Albeck (Württ))","Krone","10.054848","48.481547"
9003499,"Ehinger Str. (Rottenacker)","Ehinger Str.","9.695035","48.234833"
9002143,"Werdenbergstraße (Albeck (Württ))","Werdenbergstraße","10.056144","48.483405"
9002142,"Schule (Albeck (Württ))","Schule","10.061243","48.482684"
9002145,"Kornberghöfe (Albeck (Württ))","Kornberghöfe","10.042830","48.470712"
9002144,"Abzw. Göttingen (Albeck (Württ))","Abzw. Göttingen","10.052654","48.479444"
9002147,"Rasthaus Seligweiler (Albeck (Württ))","Rasthaus Seligweiler","10.031663","48.458249"
9002146,"Staudenhöfe (Albeck (Württ))","Staudenhöfe","10.036994","48.464389"
9003490,"Schulzentrum (Munderkingen)","Schulzentrum","9.647946","48.229416"
9003491,"Siedlung (Munderkingen)","Siedlung","9.644201","48.228124"
9003492,"Herderweg (Munderkingen)","Herderweg","9.650758","48.242107"
9003493,"Frankenstraße (Munderkingen)","Frankenstraße","9.641035","48.224652"
9003494,"Hürbachstraße (Munderkingen)","Hürbachstraße","9.643509","48.224494"
9003495,"Min.-Schmid-Str. (Munderkingen)","Min.-Schmid-Str.","9.643294","48.226681"
9003497,"Mozartstraße (Rottenacker)","Mozartstraße","9.692162","48.237396"
9003142,"Liebherr (Ehingen (Donau))","Liebherr","9.713321","48.291298"
9003143,"Ulmer Hof (Ehingen (Donau))","Ulmer Hof","9.693486","48.299396"
9003636,"Bach (Bach (Donau))","Bach","9.853448","48.330012"
9003141,"Busbahnhof (Ehingen (Donau))","Busbahnhof","9.723395","48.285128"
9003631,"Bundesstraße (Wernau (Donau))","Bundesstraße","9.912273","48.342591"
9003144,"Jägerhof (Ehingen (Donau))","Jägerhof","9.690606","48.302732"
9003145,"Zellstoff (Ehingen (Donau))","Zellstoff","9.726730","48.269459"
9003148,"Karpfenweg (Ehingen (Donau))","Karpfenweg","9.746003","48.281225"
9003149,"Alter Postweg (Ehingen (Donau))","Alter Postweg","9.740981","48.283335"
9006288,"Kanzach Marbacher Straße (Kanzach)","Kanzach Marbacher Straße","9.558350","48.076765"
9006289,"Rathaus (Kirchberg (Iller))","Rathaus","10.081761","48.133248"
9006282,"Wattenweiler (Wattenweiler (Kr BC))","Wattenweiler","9.719781","47.993898"
9006283,"Ortsmitte (Winterstettendorf)","Ortsmitte","9.739125","47.987992"
9006280,"Kindergarten (Steinhausen (Kr Bib))","Kindergarten","9.698943","48.030352"
9006281,"Gemeindehaus (Muttensweiler)","Gemeindehaus","9.711204","48.037598"
9006286,"Ränkle (Winterstettenstadt)","Ränkle","9.747037","48.008015"
9006287,"Krone (Kanzach)","Krone","9.558785","48.077239"
9006285,"Rathaus (Winterstettenstadt)","Rathaus","9.740764","48.007031"
9006048,"Schule (Bad Schussenried)","Schule","9.650645","48.004672"
9006049,"Torfwerk (Bad Schussenried)","Torfwerk","9.638644","48.032332"
9006046,"Moorbadstüble (Bad Schussenried)","Moorbadstüble","9.654067","48.008268"
9006047,"Abt-Siard-Haus (Bad Schussenried)","Abt-Siard-Haus","9.654841","47.998487"
9006040,"Kappel-Gewerbegebiet (Bad Buchau)","Kappel-Gewerbegebiet","9.596578","48.059988"
9006041,"Henauhof (Bad Buchau)","Henauhof","9.626933","48.045158"
9006042,"Alte Post (Bad Schussenried)","Alte Post","9.657443","48.005002"
9006043,"Bahnhof (Bad Schussenried)","Bahnhof","9.668426","47.994128"
9006264,"Niedernzell (Niedernzell)","Niedernzell","10.000785","48.139351"
9006265,"Weitenbühl (Weitenbühl)","Weitenbühl","10.000120","48.150032"
9006266,"Zillishausen (Zillishausen)","Zillishausen","9.943348","48.133757"
9006267,"Zillishausen Abzweig (Zillishausen)","Zillishausen Abzweig","9.955858","48.124444"
9006260,"Kohlteich (Gutenzell)","Kohlteich","10.002674","48.118379"
9006261,"Rathaus (Gutenzell)","Rathaus","9.997291","48.113633"
9006263,"Stockäcker (Hürbel)","Stockäcker","9.960211","48.125200"
9006268,"Petershof (Mühlhausen (Kr Bib))","Petershof","9.826361","47.966586"
9006269,"Appendorf (Appendorf)","Appendorf","9.798416","48.043221"
9003032,"Rathaus (Schwörzkirch)","Rathaus","9.777206","48.316568"
9006462,"Eichenau Grenzstraße (Riedlingen (Württ))","Eichenau Grenzstraße","9.499616","48.157671"
9006463,"Milchwerk (Riedlingen (Württ))","Milchwerk","9.495562","48.152688"
9006460,"Stern (Daugendorf)","Stern","9.486334","48.184492"
9006461,"Eichenau Bundesstraße (Riedlingen (Württ))","Eichenau Bundesstraße","9.495951","48.155330"
9006466,"Daimlerstraße (Riedlingen (Württ))","Daimlerstraße","9.498023","48.155582"
9006467,"Oberdorf (Pflummern)","Oberdorf","9.415522","48.173717"
9006464,"Parkstraße (Grüningen (Württ))","Parkstraße","9.456317","48.167807"
9006468,"Unterdorf (Pflummern)","Unterdorf","9.421271","48.171367"
9006469,"St. Wendelinus-Straße (Riedlingen (Württ))","St. Wendelinus-Straße","9.493104","48.151358"
